ref:mise;name;operator;address;latitude;longitude
52017;EUROPAM S.P.A. - ANGHIARI;EUROPAM S.P.A.;VIA PROVINCIALE LIBBIA \t 26 52031;43.54227898342549;12.055464510136348
34692;luca viviani;esso viviani;VIA LIBBIA KM. 5 + 392 . 52031;43.550305303543844;12.079463079571724
44530;_LATO EST;_LATO EST;73 Senese Aretina, Km. 162, Est - ;43.47295419779255;12.055118083953857
44531;_Lato Ovest;_Lato Ovest;73 Senese Aretina, Km. 162, Ovest - ;43.47309434397329;12.054409980773926
5455;34601 BATTIFOLLE;BATTIFOLLE;Strada Statale 679 Loc. Battifolle Km 7 + 480  52100;43.43977299664931;11.783466004962975
51863;4656 – Arezzo;PV 4656 – Arezzo;Via Vittorio Veneto, 165  52100;43.45533445156062;11.871353372859971
40021;52166;GESTIONI INNOVATIVE ITALIA S.R.L.;VIA C. COLOMBO 0 52100;43.455339702102975;11.867830082774162
46476;arezzo;CORO S.R.L.;VIALE SANTA MARGHERITA  52100;43.47328429700239;11.879178311045052
20673;Arezzo;"IP SERVICES S.R.L.";Via Marco Perennio 69/2 52100;43.46941422003049;11.87035471200943
24779;AREZZO - DAL BORRO;"IP SERVICES S.R.L.";VIA DAL BORRO  52100;43.46460389349198;11.868141574239758
30633;AREZZO - MARCO PERENNIO 44/E;"IP SERVICES S.R.L.";VIA MARCO PERENNIO 44/E 52100;43.46920794160213;11.872745541000313
32958;AREZZO - POLICIANO SR 71;"IP SERVICES S.R.L.";VIA POLICIANO SR 71  52020;43.38305321513474;11.86049807605741
5268;Arezzo - Setteponti;Arezzo - Setteponti;VIA SETTEPONTI 41 52100;43.47720905364789;11.868378938622982
50989;AREZZO BATTIFOLLE;SIRTAM S.P.A.;679 Arezzo-Battifolle, Km. 7+489, AREZZO - 52100;43.43926332673501;11.783396114301054
7610;AREZZO P.PERO;DRIVE SERVICE S.R.L.; SS73 KM 155+677 SNC 52100;43.42322344552082;11.976917535066605
50440;AREZZO PESCAIOLA;SIRTAM S.P.A.;S.P. 21 DI PESCAIOLA - LOC SAN GIULIANO  52100;43.456289523084585;11.808209513753004
28520;AREZZO SAN GIULIANO;STAR SERVICE S.R.L.;Statale 679 Arezzo-Battifolle, Km. 4+830, dir. AUTOSTRADA - 52100;43.45420086501424;11.808430552482605
50442;AREZZO SAN MARCO;SIRTAM S.P.A.;S.S.73 SENESE ARETINA  52100;43.44600013879962;11.866257832203226
51177;Arezzo SP71 UMBRO CASENTINESE ;Arezzo SP71 UMBRO CASENTINESE ;SR 71 Umbro Casentinese Romagnola Km 150+900 52011;43.48768593391696;11.875632327471921
35054;AREZZO STAZIONE;STAR SERVICE S.R.L.;Statale 679 Arezzo-Battifolle, Km. 5+728, dir. A1 - 52100;43.448409190476234;11.80069237947464
6593;AREZZO VIA DANTE - P.V. Q8;SERVIZI & GESTIONI ITALIA srl;VIA DANTE - P.V. Q8 SNC 52100;43.44885856272305;11.86065208650814
23558;AREZZO VIA FIORENTINA 228;SERVIZI & GESTIONI ITALIA S.R.L.;VIA FIORENTINA 228 52100;43.47169125089051;11.859490716146865
33824;Arezzo Via Tarlati;RETITALIA  S.P.A.;VIA TARLATI 0 52100;43.469112692344;11.889240145683289
11466;AREZZO-VIA BENEDETTO CROCE;SERVIZI & GESTIONI ITALIA S.R.L.;VIA BENEDETTO CROCE S/N 52100;43.46283438436462;11.848567128181458
11467;AREZZO-VIA BENEDETTO DA MAIANO;SERVIZI & GESTIONI ITALIA S.R.L.;VIA BENEDETTO DA MAIANO S/N 52100;43.453753269730676;11.88547317790983
11464;AREZZO-VIA ROMANA SS. 71;SERVIZI & GESTIONI ITALIA S.R.L.;VIA ROMANA SS. 71 S/N 52100;43.44515442276784;11.858509212303147
55586;BEYFIN;BEYFIN;Raccordo Autostradale km. 6+250 - Loc. Le Fosse  52100;43.44504;11.7965902
46815;BEYFIN ;BEYFIN ;via Buonconte da Montefeltro 45 52100;43.47853646966633;11.886061591977068
54037;BEYFIN SAN LEO;BEYFIN SAN LEO;S.S. 69 DEL VALDARNO KM 62 SNC 52100;43.47619770143751;11.832479690725874
51650;ENI;ENI; via fiorentina 63 52100;43.470589235567076;11.865305879710911
5333;ENICAFE;LAURENZI ERMANNO;Statale 71 Umbro Casentinese Romagnola, Km. 141, dir. PERUGIA - 52100;43.41671885331177;11.848218441009521
55806;ESSO ;ESSO ;ARETINA NORD 40 52100;43.41272;11.80237
43394;ESSO AREZZO - SITORNI;PAD MULTIENERGY S.P.A;Via Umbro Casentinese - Fraz. Giovi - Loc. Sitorni  52100;43.510756653063474;11.8712063412376
55245;ESSO AREZZO SS 73 SENESA ARETINA KM141+462 LOC. SAN MARCO;PAD MULTIENERGY S.P.A;SS 73 KM 141+642 LOC. S.MARCO 0 52100;43.445717999999999;11.867008999999999
24059;ESSO di Arturi Maurizio;ARTURI MAURIZIO;Via Romana - Loc. San Lazzaro  52100;43.44622052742819;11.85983605287322
51496;ESSO STADIO;MARITATO GIANCARLO;SIMONE MARTINI SNC 52100;43.44928155996286;11.890844106674194
40312;EUROPAM - AREZZO;EUROPAM S.R.L.;LOCALITA' DOCCIA RONDINE  52100;43.5082160028992;11.785018891096115
53782;F.LLI MAZZI SRL;F.LLI MAZZI SRL;VIALE MECENATE 81/A 52100;43.452021653026215;11.880088448524475
12155;F.LLI MAZZI SRL;F.LLI MAZZI SRL;VIALE MECENATE 81/A 52100;43.452021653026215;11.880088448524475
23969;IMPIANTO ENI BARACCHI STEFANO;BARACCHI STEFANO;VIA SETTEPONTI 356 52100;43.49732733694601;11.829856038093567
26932;IP;A.G.A. S.N.C. DI ANGIUS ALESSANDRO & C.; S.R. 71 - RIGUTINO/OTTAVO T 52100;43.368602773723886;11.879401803016663
10758;IP;IP;VIA GUIDO TARLATI 175 52100;43.468228345194284;11.890795826911926
55239;IP Rigutino;IP Rigutino;SAN JACOPO 294 52100;43.368869510504425;11.879181861877441
35397;MYOIL;CHERICI SIMONE E GIANNOTTI ELENA & C. S.N.C.;VIA A. FLEMING SNC 52100;43.469432907313106;11.853665336966515
51651;paolo pratesi;paolo pratesi;case nuove di ceciliano,16 16 52100;43.49197333409652;11.87521219253536
30217;PV 4684;GESTIONI INNOVATIVE ITALIA S.R.L.;VIA TURATI - LOC.PASCIONE SNC 52100;43.48021878079349;11.868757456541061
45701;SHELL AREZZO - V. ANCONETANA;PAD MULTIENERGY S.P.A;Via Anconetana 102 52100;43.45834181300573;11.901006514993828
55202;SHELL AREZZO VIA ROMANA LOC. SAN LAZZARO;PAD MULTIENERGY S.P.A;ROMANA LOC. S. LAZZARO SNC 52100;43.4448977;11.8580303
46342;STAZIONE DI SERVIZIO IP INDICATORE;MANCINI SASCIA;VIA CASSIA LOC. INDICATORE  SNC 52100;43.47097478191398;11.814084649085999
10357;Stazione di Servizio Tamoil;DANESI GIUSEPPE & INNOCENTI ELIO S.N.C.;Via Galileo Ferraris 7 52100;43.46775219780616;11.85098648071289
55930;SUPERGAS;SUPERGAS;VIALE SANTA MARGHERITA  52100;43.47551;11.87872
40087;GALLI ILVA;GALLI ILVA;VIA RICCI 34/A 52032;43.70403046928737;12.187297940254211
4214;AREA DI SERVIZIO LECHIANE;AREA DI SERVIZIO LE CHIANE DI LODDI DAVID E SPINOSO MICHELE & C. S.N.C.;VIA BUONCONTE DA MONTEFELTRO 9 52011;43.69424176833497;11.802805598384566
48970;BIBBIENA CARBURANTI;BIBBIENA CARBURANTI;VIA LOC. PALAZZETTO 0 52011, BIBBIENA (AR) SNC 52011;43.70187725169301;11.804056880538951
11468;BIBBIENA-LOC. PIANACCI 8 SS 71;SERVIZI & GESTIONI ITALIA S.R.L.;LOC. PIANACCI SS 71 8 52011;43.71788587052159;11.808961629867554
7089;C. & C. DISTRIBUZIONE CARBURANTI DI CECCONI E CORDOVANI SNC;C. & C. DISTRIBUZIONE CARBURANTI DI CECCONI E CORDOVANI SNC;VIA NAZIONALE  52010;43.7309519611638;11.811676025390625
47427;ESSO BIBBIENA SS.71 Km 179+602;PAD MULTIENERGY S.P.A;SS.71 KM 179+602 BIBBIENA SCALO  51022;43.699080381431614;11.810535159027346
13757;zavagli snc di zavagli gianni e c.;ZAVAGLI S.N.C. DI ZAVAGLI GIANNI E C.;VIA UMBRO CASENTINESE  138 52011;43.698274173742604;11.810502483317237
36479;BUCINE;STAR SERVICE S.R.L.;S.P. 540 DI VAL D 'AMBRA  52021;43.47564318496342;11.617873013019562
38414;OILFIN s.r.l. - BUCINE;OILFIN S.R.L.;VIA PRIMO MAGGIO  134 52021;43.43570712821327;11.653240889549238
15936;ALFA CARBURANTI;ALFA CARBURANTI;VIA DANTE ALIGHIERI 74/B 52010;43.565060370919866;11.862675763376615
50352;4614 – Rassina;ENI FUEL S.P.A.;SS 71 LOC.RASSINA  52016;43.63957251663484;11.837701836115937
53095;6881;T.D.M. S.R.L.;UMBRO CASENTINESE SNC 52016;43.662831;11.840828
34838;Stazione di servizio esso cheli snc;CHELI S.N.C. DI MATTEO CHELI & C.;VIA PALMIRO TOGLIATTI 16 52018;43.74531150867291;11.710605327647386
21575;ANGELILLO F. & C. S.N.C.;ANGELILLO F. & C. S.N.C.;VIA FIORENTINA   52026;43.62324643041301;11.507076993584633
52640;Taddeucci auto snc;Taddeucci auto snc;ALCIDE DE GASPERI 47 52026;43.63886209463507;11.540301973107944
47373;Stazione di Servizio Esso;PETROL CAST S.R.L.;Via Setteponti, 1/R 1/R 52029;43.52241965074751;11.76792511213197
50448;CASTIGLION FIORENTINO;SIRTAM S.P.A.;VIA SERRISTORI  34 52043;43.34356569518536;11.907880281535173
6594;CASTIGLION FIORENTINO S.S.71 UMBRO CASENTINESE 159;SERVIZI & GESTIONI ITALIA srl;S.S.71 UMBRO CASENTINESE 159 52043;43.33381672231936;11.923259943723679
12226;F.LLI MILIGHETTI SNC;F.LLI MILIGHETTI S.N.C. DI MILIGHETTI MARINO E LIDO & C.;VIA ARETINA 117 52043;43.35040956219107;11.907621134918145
8336;STAZIONE DI SERVIZIO AGIP CAFE 4653 SNC;STAZIONE SERVIZIO AGIP CAFE' 4653 S.N.C. DI MARCHESINI E SOGGETTI;VIA UMBRO-CASENTINESE 120/122A 52043;43.34138828754621;11.91654771566391
24387;CAVRIGLIA;CAVRIGLIA;VIA EUROPA 1 52022;43.525341132299815;11.487569957971573
14440;mugnai marco ;MUGNAI MARCO;VIA G. CASINI 1 52022;43.54275925780419;11.451942846179008
46859;Stazione di servizio PGV di Baldi A. SAS;STAZIONE DI SERVIZIO PGV DI BALDI A. SAS;via delle miniere  fraz. Meleto  4 52022;43.56109337050119;11.464567256722603
35354;AELLE SERVICE DI LAGARINI ALESSANDRO;AELLE SERVICE DI LAGARINI ALESSANDRO;VIA ROMA 47 52010;43.69728337125584;11.936736032366753
55530;M.P.;M.P.;ROMA 47 52010;43.693693833367796;11.938018798828125
53882;UZUNI IGLI;UZUNI IGLI;NAZIONALE S.N.C. 52010;43.681109360800356;11.829765425920481
3537;AREA SERVIZIO BADIA AL PINO EST;AREA SERVIZIO BADIA AL PINO EST;AREA SERVIZIO BADIA AL PINO EST 52041;43.40641196050068;11.763893933868417
3471;BADIA AL PINO OVEST;Mattesini Matteo & C snc;Autostrada A1 MILANO-NAPOLI, Km. 362+300, dir. Sud - 52041;43.40652172181852;11.762473472213742
28626;CIVITELLA VAL DI CHIANA;STAR SERVICE S.R.L.;Statale 680 San Zeno-Monte San Savino, Km. 10+840, dir. AREZZO - 52041;43.402032441419685;11.799391508102417
5998;MANNELLI GIUSEPPE SRL;MANNELLI GIUSEPPE S.R.L.;VIA ANTONIO GRAMSCI, EZZO 45/2 52041;43.40863370068234;11.768546104431152
50424;47152;CORO S.R.L.;LOC.SAN PIETRO A CEGLIOLO SS 71  52044;43.28780083784945;11.951943088954925
10048;AQUILA - CORTONA;AQUILA;Statale 71 Umbro Casentinese Romagnola, Km. 119+0,35, dir. SUD - 52044;43.255682964640336;11.980988457798958
5274;Arezzo - Camucia;Arezzo - Camucia;STRADA PROVINCIALE DI MANZANO 1046 52044;43.250487123079374;11.95924311876297
25369;Beyfin;NAKO LEONARD;PIAZZA DEL MERCATO 1 52044;43.27320089506677;11.983482009578665
31600;CORTONA CENTOIA CARBURANTI;L'EDERA DI DOMINGO PIERONI;VIA C.A. CENTOIA 32 52044;43.189668596487046;11.932987948839013
7276;CORTONA-SS71 KM110 330 FR TERONTOLA;SERVIZI & GESTIONI ITALIA S.R.L.;FZ.TERONTOLA SS. 71 KM.110+330 SN 52040;43.18393095321763;12.013595402240753
31713;Esso Ricci-Miniati;Esso Ricci-Miniati;VIALE GIACOMO MATTEOTTI 138 52044;43.26573619400034;11.975146398811376
9991;ICM - Terontola;I.C.M. SOCIETA' IN NOME COLLETTIVO DI BRUNO, CRISTIANO E FABRIZIO MAGGI;Strada Statale 71 - Loc. Terontola  52044;43.19670191052097;12.013226598501205
50511;IVM;IVM;Via Ponti - Loc. Mercatale snc 52044;43.2539951510447;12.139502316713333
11222;L.C.DI LORENZONI EDI ;L.C.DI LORENZONI EDI ;GIACOMO MATTEOTTI 144 52044;43.2666941571157;11.97494810185242
42803;OLIOCARBO;COPPINI AMERIGO;FRAZIONE COL DI MORRO 1 52044;43.312166995080595;12.100098907249048
25682;PIETRAIA;SIRTAM S.R.L.;Autostrada RA06 RACCORDO AUTOSTRADALE BETTOLE-PERUGIA, Km. 14+380, dir. PERUGIA - 52044;43.20327701362495;11.96637511253357
31211;TM04675;PIT STOP LANE SNC DI DEBOLI M. NAPPINI G. E POMERANI R.;Statale 71 Umbro Casentinese Romagnola, Km. 116+512, dir. Arezzo - 52044;43.236734377092965;11.999130249023438
51285;8071;T.D.M. S.R.L.;S.S. 327 KM. 14+488 0 52045;43.283572905132075;11.826719793254096
47120;ESSO FOIANO DELLA CHIANA;PAD MULTIENERGY S.P.A;SP 327 DI FOIANO KM 20.900  52045;43.23119400977514;11.815719591103155
39662;OP Petroli FOIANO DELLA CHIANA;OP Petroli;VIA DI AREZZO SP327 49/A/B 52045;43.258944180259284;11.81886836886406
54135;Piccini Fuels Foiano della Chiana;Piccini Fuels Foiano della Chiana;SP 327 – Loc. Pialla - Via del Porto  snc 52045;43.24230512946541;11.827666341104516
34761;SIVOC;SOCIETA' ITALIANA VENDITA OLII CARBURANTI - S.I.V.O.C.- SOCIETA A RESPONSABILITA' LIMITATA;VIA DELLE FARNIOLE 27/A 52045;43.22369387285156;11.8092580139637
27363;Tamoil 8071 carburanti lubrificanti;CORSI LUCA;STRADA STATALE 327 KM.14+488   52045;43.28356881401184;11.826705783605575
37440;LATERINA;SIRTAM S.P.A.;VIA PROV.LE VECCHIA ARETINA  52020;43.506203319752835;11.71310618519783
19399;PVS IL PIENO;PVS IL PIENO;VIA NAZIONALE 59 52020;43.480802322655954;11.71675817790981
55308;ANDREINI VALERIO S.A.S DI ANDREINI FABIO E C.;ANDREINI VALERIO S.A.S DI ANDREINI FABIO E C.;DEL BAGNO 10 52019;43.475077177929;11.680872703041132
54817;PE.BA. SNC DI BAZZECHI NICO & C:;PE.BA. SNC DI BAZZECHI NICO & C:;viale europa 27 52024;43.54866405959634;11.697657473550521
8674;STAZIONE SERVIZIO CIUFFENNA;STAZIONE SERVIZIO CIUFFENNA S.A.S. DI RIGHESCHI ANDREA & C.;VIA FILIPPO TURATI 32/B 52024;43.582951374873815;11.6237139914017
55929;SUPERGAS;SUPERGAS;VIA DE GASPERI  52024;43.58947;11.62875
34105;BE BOP;BE BOP DI MILO DI GORO;Via Prato 11 52046;43.2731266293087;11.743952259421349
41500;LUCIGNANO EST;ENI FUEL S.P.A.;A1 MILANO-NAPOLI, Km. 381, Firenze - 52046;43.2801421;11.7664812
29384;LUCIGNANO OVEST;NUOVA SIDAP  S.R.L.;Autostrada A1 MILANO-NAPOLI, Km. 381, dir. Roma - 52046;43.24564037100088;11.77470713853836
39028;PV MARCIANO DELLA CHIANA;ALA CARBURANTI S.R.L.;VIA PROVINCIALE DELLE CULLE SNC 52047, MARCIANO DELLA CHIANA (AR) SNC 51039;43.3228913806433;11.784680262207985
41003;tamoil 2304;CORSI LUCA;via castiglioni 26e 52047;43.31589087095692;11.809579208493233
52668;Angelo Malinconico;Angelo Malinconico;Viale S. M. delle Vertighe 25 52048;43.3288091;11.7453422
44853;eni;eni;VIA ARETINA 45 52048;43.33668104341239;11.727797985076904
46233;ESSO MONTE SAN SAVINO;PAD MULTIENERGY S.P.A;Via Fiorentina 8 A 52048;43.33637711040649;11.726019729957017
55232;IP MONTE SAN SAVINO;IP MONTE SAN SAVINO;LOC. LE VERTIGHE 623/A 52048;43.3284392;11.7563739
46511;PV ALBERORO;ALA CARBURANTI S.R.L.;VIA S.S. 327, LOC. ALBERORO SNC 52048, MONTE SAN SAVINO (AR) 39 52048;43.36939206166283;11.80817037820816
39827;6025;T.D.M. S.R.L.;S.S. 221 KM 1+594 - 52035;43.48855219366908;12.097101286053658
45542;ALA - MONTEVARCHI;ALA CARBURANTI - MONTEVARCHI;Via Maestri Del Lavoro 11 52025;43.53082752119294;11.559988260269165
52309;ANNA D'AMBROSCA;D'AMBROSCA ANNA;VIALE DIAZ 168 52025;43.5287853982073;11.565663436487547
20832;ENI 53540;D'UVA DANIELE;VIA ARETINA 410 52025;43.51099466399102;11.596010327339172
9443;IP VIA ENZO FERRARI MONTEVARCHI;PECORA MICHELE & C. S.N.C.;VIA ENZO FERRARI 10 52025;43.539095836841156;11.555559118771384
6203;La Vela di Fibbi;La Vela di Fibbi;VIALE ARMANDO DIAZ 61 52025;43.5250963890605;11.569647618385261
10776;M.P di Meoni Roberto & C S.N.C;M.P di Meoni Roberto & C S.N.C;ARETINA 671 52025;43.50248183825745;11.613197922706604
21883;METANAUTO S.R.L.;METANAUTO S.R.L.;VIA AMMIRAGLIO BURZAGLI 233 52025;43.53983549367005;11.553700892065422
4641;Montevarchi Oil;NUOVA SIDAP  S.R.L.;VIA DI TERRANOVA SNC 52025;43.53891500902509;11.563652157783508
12479;stazione Eni 04627;stazione Eni 04627;VIA A. BURZAGLI 169 52025;43.53213331401716;11.55969724059105
56010;SUPERGAS;SUPERGAS;Viale Cadorna 38 52025;43.53415;11.56080
53710;BONCOMPAGNI ANDREA;BONCOMPAGNI ANDREA;EUROPEA E45 125 KM 52036;43.662966614951905;12.047281265258789
12024;Esseci Carburanti;Esseci Carburanti;VIA TIBERINA 80 52036;43.67261999999998;12.039517110450788
51833;Eurocarburanti;RIOLO S.R.L.;3 bis Tiberina, Km. 150, direzione Roma - 52036;43.65843336914881;12.051442451775069
4906;ENI - PONTE A POPPI;ENI - PONTE A POPPI;Statale 70 della Consuma, Km. 35+360, dir. Arezzo - 52014;43.7243039955687;11.77504382837653
10300;PIERGIOVANNI;PIERGIOVANNI ANNA RITA;PIAZZA XIII APRILE  52014;43.79512439773404;11.876782083210742
7115;ENI - MONETI DANIELE & C. SAS;ENI - MONETI DANIELE & C. SAS;VIA CIRCONVALLAZIONE 33/A 52015;43.78667794571238;11.722395144573284
3574;ARNO EST;ARNO EST;RENACCI AUTOSOLE A-1 RM-FI KM 331.500 52027;43.58347433861366;11.52153342962265
20833;ENI 04634;D'UVA DANIELE;VIA PERUZZI 19 52027;43.568891799086785;11.526724085844421
26934;Esso Mami snc;Esso Mami snc;VIALE RISORGIMENTO 3/A 52027;43.56438024138458;11.53563380241394
52611;Innosacc Q8;Innosacc Q8;GRUCCIA KM32+800 52027;43.54808218068661;11.545009342758249
11465;SAN GIOVANNI VALDARNO-VIALE RISORGIMENTO 4/A;SERVIZI & GESTIONI ITALIA S.R.L.;VIALE RISORGIMENTO 4/A 52027;43.5609101632698;11.537945866584778
19587;TOTAL ERG;C.V.R. GAS DI GIUNTI ROMANO & C. S.N.C.;Statale 69 di Val d'Arno, Km. 29,200, dir. NORD - 52027;43.57633273572063;11.525420621037483
54904;ADS Città del Palio della Balestra;ADS Città del Palio della Balestra;Strada Statale E45 Km 138,85 Nord dir. Cesena  52037;43.57631;12.11870
28605;ADS Città di Piero della Francesca;ADS Città di Piero della Francesca;FRAZIONE VANNOCCHIA 81/B 52037;43.57637101555412;12.11768925189972
25435;Cuku Mark;CUKU MARK;VIA TIBERINA SUD 76 52037;43.56667548662553;12.152062616613767
46913;ESSO SANSEPOLCRO;PAD MULTIENERGY S.P.A;Via Senese Aretina 301 52037;43.557011376256234;12.11082722686217
5732;Malatesta 156;D.F.D. DI VITTORIO FLAMINI E FILIPPO DEL TOGNO SNC;Via Malatesta km.156  52037;43.5739070598795;12.139329314231873
4027;PicciniFuels - Dir. Arezzo;PicciniFuels - Dir. Arezzo;VIA SENESE ARETINA  102-104 52037;43.56646304755377;12.121032488299534
44864;PicciniFuels - Dir. Sansepolcro;PicciniFuels - Dir. Sansepolcro;Via Senese Aretina  121 52037;43.56642377385617;12.121668271163912
26779;SANSEPOLCRO;TIBER S.R.L.;VIA TIBERINA SUD 408 52037;43.56577645709385;12.154690235875023
35095;SANSEPOLCRO - SENESE ARETINA;"IP SERVICES S.R.L.";VIA SENESE ARETINA KM 180,973  52037;43.57102794935781;12.129297000259157
24042;TAMOIL;FRATELLI CRESTINI DI CRESTINI LEONARDO & C.S.N.C.;P.ZZA DEL MERCATO 10 52038;43.70719904118224;12.296020443688917
8260;ARCA SNC DI ARTINI E CACCIALUPI;ARCA SNC DI ARTINI E CACCIALUPI;VIA VIA CINTA ESTERNA SR71 52010, SUBBIANO (AR) -224 52010;43.572313836152254;11.871165351867717
55922;SUPERGAS;SUPERGAS;Località Castelnuovo 69 52010;43.56038;11.85587
55916;Supergas ;Supergas ;VIa Verdi 74 52010;43.57759;11.87093
55925;SUPERGAS;SUPERGAS;PIAZZA DELLA LIBERTA  52010;43.60187;11.78897
33713;Agip - Eni;CARBURANTI VALDARNO SRL;VIA POGGILUPI 668 52028;43.54935694310108;11.563030741000375
50093;donato sas;DONATO SAS DI PIGNATARO DONATO & C;VIALE EUROPA 29 52028;43.54979987973479;11.58597323278212
55928;SUPERGAS;SUPERGAS;VIALE EUROPA  52028;43.54782;11.57905
53364;TERRANUOVA;TERRANUOVA;S.P. 59 KM1 + 640 SX S.N.C. 52028;43.550434721273646;11.594262788501396
30325;TERRANUOVA BRACCIOLINI - MOCARINI 735;"IP SERVICES S.R.L.";VIA PONTE MOCARINI 735 52028;43.54341555365068;11.570221457672119
49825;Aquila - Croce A Varliano;AM DI CAPPINI MIRKO E REGGI ALESSANDRO SNC;Via Roma 298/A 50012;43.74560469156124;11.338348708357183
40359;Bagno a Ripoli;"IP SERVICES S.R.L.";via di Rosano Loc. Vallina snc 50011;43.77883063826046;11.363694816827774
3486;CHIANTI EST;LA CONCHIGLIA SAS;Autostrada A1 MILANO-NAPOLI, Km. 305+600, dir. Nord - 50011;43.73003797836093;11.332406880950884
39736;CHIANTI OVEST;CARLESI CARBURANTI S.A.S. DI BENEDETTA CARLESI;Autostrada A1 MILANO-NAPOLI, Km. 305.6, dir. sud - 50012;43.72921031635258;11.333670169115067
27035;ENI LEPRI PAOLO 2019 & C SAS;ENI LEPRI PAOLO E GUIDI CLAUDIO SNC;S.R.222 VIA CHIANTIGIANA KM 2  50012;43.73829325390573;11.291337059403457
46560;IP;IP;VIA DELL'ANTELLA 72 50012;43.73023319478379;11.314776688814163
48080; ip mugello fuel station sas;MUGELLO FUEL STATION DI BUCCINO PASQUALE & C. SAS;via del lago  6 50031;43.99072872189402;11.230857790542625
3687;AGLIO EST;Aglio Services srl;Autostrada A1 MILANO-NAPOLI, Km. 255+800, dir. Nord - 50031;44.02957247403531;11.225896152114842
36329;buccino marco;buccino marco;antonio gramsci 25 50031;43.99680946858813;11.240148296958978
38452;CPM Barberino;CPM Barberino;VIA LAGO LOC. CAVALINA  SN 50031;43.98921598481671;11.228010775463076
46064;ESSO BARBERINO DI MUGELLO - VIA MATTEOTTI;PAD MULTIENERGY S.P.A;V.le G. Matteotti 6/A 50031;43.992469952682434;11.238524188879346
48679;mugello fuel station ;MUGELLO FUEL STATION DI BUCCINO PASQUALE & C. SAS;VIA DEL LAGO 18 50031;43.980523650265496;11.220898658895502
17650;Gori Mattia;Gori Mattia;Statale 2 Via Cassia, Km. 263 + 353, dir. nord 29 50028;43.54305629960399;11.172899525131243
4902;Stazione Padim di Panti e Di Maggio ;Stazione Padim di Panti e Di Maggio ;Via Leonardo da Vinci 148  50028;43.5915134;11.1997541
7259;BARBERINO VAL D'ELSA-SS429 KM42 739;SERVIZI & GESTIONI ITALIA S.R.L.;LOC. TRE PIE' S.S.429 KM. 42+739  50021;43.49368722706796;11.120559275150299
6253;F.LLI CIONI;F.LLI CIONI;LOCALITA' DROVE RACCORDO SS 429 SS 2  50021;43.48366392193896;11.14261507987976
47046;repsol ;TRE + S.A.S. DI ALESSIO DI LEONARDO & C.;NUOVO RACCORDO DI DROVE SS429 E SS2 50028;43.48538848356436;11.144870258662309
54313;2P CARBURANTI;2P CARBURANTI;VIA VIALE GIOVANNI XXIII 22 50032, BORGO SAN LORENZO (FI) 22 50032;43.95465685414099;11.38332724571228
6586;BORGO SAN LORENZO VIALE PECORI GIRALDI 3;SERVIZI & GESTIONI ITALIA srl;VIALE PECORI GIRALDI 3 50032;43.955241315735115;11.39335431412087
54916;PIERI LUCA E C SAS 2;PIERI LUCA E C SAS 2;VIALE GIOVANNI XXIII, SNC  50032;43.95803936848097;11.368781479037455
17490;Pieri Mauro & C. Snc;PIERI MAURO & C. - S.N.C.;Viale della Resistenza  50032;43.95716271502194;11.3740374147892
7755;TAMOIL;TAMOIL;VIALE GIOVANNI XXIII SNC 50032;43.95923366810547;11.365043967962265
48048;CALENZANO;SIRTAM S.P.A.;PROV.LE DI BARBERINO SNC 50041;43.940270027000196;11.215679830511096
11585;CALENZANO-VIA PUCCINI;SERVIZI & GESTIONI ITALIA S.R.L.;VIA PUCCINI S/N 50041;43.86186075891062;11.163649796295203
48719;Carrefour Calenzano;Carrefour Calenzano;Via Dino Ciolli   145  50041;43.85390534508203;11.166667034087054
46224;DUE A snc;DUE A snc;VIA DI PRATO SNC 50041;43.854321200453725;11.156579856714643
42124;Ip;Totalerg /Ip;sp8  tangenziale ovest snc 50041;43.867390139064696;11.164736910748275
55453;Martini Silvia;Martini Silvia;VIA VIA   DANTE  ALIGHIERI 6 50041, CALENZANO (FI) 6 50041;43.85445839271628;11.17830774100037
38885;stazione di servizio ENI 4739;stazione di servizio ENI  4739;VIA VITTORIO EMANUELE SNC 50041;43.85025031847835;11.169591397047043
55672;Stazione Di Servizio Esso;Stazione Di Servizio Esso;Via di Prato 24 50041;43.85658698939123;11.149255813598081
55576;AQUILA;AQUILA;XIII MARTIRI 200 50013;43.8075392;11.1280128
36828;BISENZIO EST;VIVOCAFFE' S.A.S. DI DAMIANO GIUSEPPE E C.;Autostrada A1 MILANO-NAPOLI, Km. 280,400, dir. nord - 50013;43.83556936292389;11.160046798147619
7607;CAMPI BISENZIO;G.S.SERVICE S.R.L.; S.S. 325 BARBERINESE KM 84+450 SNC  50013;43.82447576688377;11.126102147607412
20671;CAMPI BISENZIO;"IP SERVICES S.R.L.";Via Allende  50013;43.841431271017996;11.15673691034317
6578;CAMPI BISENZIO "VIA F.LLI CERVI "I GIGLI";SERVIZI & GESTIONI ITALIA srl;VIA F.LLI CERVI "I GIGLI" SNC 50013;43.84947807594298;11.140778368053475
6587;CAMPI BISENZIO PRIMALDO PAOLIERI;SERVIZI & GESTIONI ITALIA srl;VIALE PRIMALDO PAOLIERI SNC 50013;43.823689871807524;11.146528781228653
11284;ENI - SBS di Simone Brunelli Sas;ENI - SBS di Simone Brunelli Sas;VIA CIRCONVALLAZIONE SUD 51/53 50013;43.813940133705685;11.123861074447632
22927;ENI Impianto 58313;BRINI CARLO & BETTARINI ROBERTO S.N.C.;Statale 325 di Val di Setta e Val di Bisenzio, Km. 220, dir. Signa - 50013;43.814116163532;11.119803026285808
5284;Firenze - Campi Bisenzio;Firenze - Campi Bisenzio;VIA VINGONE (S.S. 66)   50013;43.80771866041542;11.102226376533508
16583;S.S. ESSO DI PETRI SNC;PETRI S.N.C. DI PETRI ALESSIO, ANDREA E LEONARDO;VIA S. ALLENDE SNC 50012;43.84141699991552;11.15587194794307
50437;CAPRAIA E LIMITE;SIRTAM S.P.A.;VIALE MONTAGNI  24 50050;43.739001500761994;10.971888369317
49723;EUROPAM - CAPRAIA E LIMITE;EUROPAM S.R.L.;VIA GRAMSCI snc 50056;43.74508846303215;10.985440399711905
43630;ADS CASTELFIORENTINO;ALA CARBURANTI S.R.L.;VIA Vittorio Niccoli 48 50051, CASTELFIORENTINO (FI) 48 50051;43.620038578473114;10.963422060012817
50456;Anass.mlaiki-carburanti.castelfiorentino;DISTRIBUTORE CARBURANTE ENI - CASTELFIORENTINO NORD DI  MLAIKI ANASS;VIA VITTORIO NICCOLI 2P 50051;43.615489349271755;10.96761120658357
46841;AQUILA;R.C.M. DI MOIO NICOLA & C. S.N.C.;VIA B. CIURINI 34/L 50051;43.58877087703086;10.989393889904022
36348;CASTELFIORENTINO;NEW GREEN FUEL S.R.L.;VIA MACHIAVELLI  50051;43.59301018103025;10.968951433897018
13654;IP ITALIANA PETROLI;TOGNAZZI MARIDO;VIA DEI PROFETI SNC 50051;43.60068395641006;10.96646435558796
13544;metano toscana srl (castelfiorentino);metano toscana srl (castelfiorentino);VIA MONTEOLIVO SNC 50051;43.577681457187744;11.007978916168213
18567;self pingua;SELF PINGUA DI PECORINI FILIPPO & C.S.A.S;VIA SUL VINCIO 2C 50050;43.77869392224317;10.858638081020331
11582;CERTALDO-VIA ROMANA 125;SERVIZI & GESTIONI ITALIA S.R.L.;VIA ROMANA 125 50052;43.54089209214217;11.045004606151565
40092;ENI;C.M.D. DI CARUSO ELIO - MAJENZA ROBERTO E C. S.N.C.;VIA DELLE REGIONI 106/A 50052;43.56785089700938;11.024151965975761
40093;ESSO;C.M.D. DI CARUSO ELIO - MAJENZA ROBERTO E C. S.N.C.;VIALE GIACOMO MATTEOTTI 191 50052;43.556068858436525;11.032640512897501
52595;IP;IP;SR429 KM 47+328 ;43.52195;11.08126
11583;DICOMANO-VIA DELLA VITTORIA 21;SERVIZI & GESTIONI ITALIA S.R.L.;VIA DELLA VITTORIA 21 50062;43.88850586930252;11.525309970569651
46312;VIA PROVINCIALE 551 KM 20+900 - DICOMANO;SERVIZI E GESTIONI ZENIT S.R.L. IN SIGLA - ZENIT S.R.L.;VIA PROVINCIALE 551 KM 20+900  50062;43.90743762707499;11.506099265516468
46845;ADS EMPOLI;ALA CARBURANTI S.R.L.;VIA CHERUBINI 58 50053, EMPOLI (FI) 58 50053;43.71991590710714;10.96534252166748
51470;Area di Servizio Eni;Area di Servizio Eni;VIA LIVORNESE 232 50053;43.70190158459696;10.907800932069247
33119;EMPOLI - JACOPO CARRUCCI;"IP SERVICES S.R.L.";VIA  JACOPO CARRUCCI 234 50053;43.7208193847583;10.958960349702807
28142;EMPOLI - VIALE PETRARCA;C.N. SAS DI F. NANNETTI E C.;VIALE PETRARCA  35 50053;43.723131412470096;10.957078635692596
39113;EMPOLI VIA PROVINCIALE LUCCHESE;SERVIZI & GESTIONI ITALIA S.R.L.;VIA PROVINCIALE LUCCHESE  50053;43.72030147444904;10.916437804698944
11584;EMPOLI-PIAZZA SAN ROCCO 36;SERVIZI & GESTIONI ITALIA S.R.L.;PIAZZA SAN ROCCO 36 50053;43.719902740862324;10.938874694442802
11578;EMPOLI-SS. 67 KM.51+176;SERVIZI & GESTIONI ITALIA S.R.L.;SS. 67 KM.51+176 S/N 50053;43.72143956895499;10.967999999999961
50843;ENGO;STOC ENERGY S.R.L.;REGIONALE TOSCANA N.429 SNC 50053;43.687865998658864;10.911906477380494
26073;eni;FOSSI M. & BARILI F.SNC;TOSCO ROMAGNOLA SNC 50053;43.72067540842981;10.963448882102966
55489;Firenze - Empoli;Firenze - Empoli;PROV.LE LUCCHESE SNC 50053;43.72007876160463;10.91646002061693
40050;GAGGIOLI E CALONACI;GAGGIOLI E CALONACI;via val d'orme nuova 10 50053;43.691749794481744;10.961112678050995
20729;Marcignana;"IP SERVICES S.R.L.";Marcignana via prov. Lucchese  50053;43.72030709606452;10.893845558166504
22367;Metano Toscana srl - (Empoli - Via Vald'Elsa);metano toscana srl - via vald'elsa;Via Val D'Elsa snc 50053;43.7040084;10.8932547
13539;Metano Toscana srl - Empoli Via Piovola;Metano Toscana srl - Empoli Via Piovola;VIA DELLA PIOVOLA 63-65-67 50053;43.7165955441996;10.968515574932098
30603;NGN NEWGASNETWORK;NEW GAS NETWORK DI MANDORLINI ELISA & FILIPPO - S.N.C.;VIA LUCCHESE 172 50053;43.720340644944734;10.898133013561278
54592;STAZIONE DI SERVIZIO D'ANGELO SAS;STAZIONE DI SERVIZIO D'ANGELO SAS;LIVORNESE 148 50053;43.71538523026813;10.921229351335725
53115;STAZIONE DI SERVIZIO ESSO;STAZIONE DI SERVIZIO ESSO;PETRARCA 1 50053;44.4814;11.0362
17850;BALLONI S.N.C. DI BALLONI ALBERTO & C.;BALLONI S.N.C. DI BALLONI ALBERTO & C.;Via Faentina - CALDINE 177/A 50014;43.83116691277085;11.307609476584275
55976;ESSO FIGLINE VALDARNO VIA PETRARCA 75;ESSO FIGLINE VALDARNO VIA PETRARCA 75;Via Francesco Petrarca 75  50063;43.6161922;11.477818900000001
25863;FIGLINE VAL D'ARNO;"IP SERVICES S.R.L.";VIA ROMA 106 50063;43.62470000000002;11.46645364418032
11580;FIGLINE VALDARNO FI-S.S. 69;SERVIZI & GESTIONI ITALIA S.R.L.;S.S. 69 S/N 50063;43.62658497566303;11.461803714233838
11581;FIGLINE VALDARNO-VIA TOTI 4;SERVIZI & GESTIONI ITALIA S.R.L.;VIA TOTI 4 50063;43.62509541591032;11.483554020524025
31009;M.A.B.E . Service Figline e incisa valdarno ;M.A.B.E SERVICE DI AGLIETTI MARCO E BARBIERI EMILIANO SNC;VIA FIORENTINA-LOC.LAGACCIONI S.N.C. 50063;43.63227665998316;11.458388864994049
13527;metano toscana srl(figline v.a);metano toscana srl(figline v.a); TRAVERSA SS 69  snc 50063;43.59758367857838;11.496106088161469
46172;SHELL INCISA VALDARNO - VIA ROMA;ESSO INCISA VALDARNO - VIA ROMA;Via Roma  50064;43.65401549456013;11.45083435775226
11591; FIRENZE - VIA DELLA NAVE DI BROZZI - ANGOLO VIA SAN DONNINO;SERVIZI & GESTIONI ITALIA S.R.L.;VIA DELLA NAVE DI BROZZI - ANGOLO VIA SAN DONNINO S/N 50145;43.78976134495156;11.164327561855316
45757;1165;T.D.M. S.R.L.;CAVE DI MONTERIPALDI SNC 50125;43.73827645164292;11.244944493254025
51872;14730 – Firenze Etruria;PV 14730 – Firenze Etruria;V.le Etruria, 40  50142;43.77365532304998;11.215048836374141
52399;2018 SAS DI ROBERTO SERAVELLI E C.;2018 SAS DI ROBERTO SERAVELLI E C.;VIALE EUROPA  200 50126;43.756536941736;11.299966578434764
24667;2063;T.D.M. S.R.L.;SENESE - LOC.I ROSSI SNC 50124;43.74463374754643;11.22713572883606
5493;34710 FIRENZE;FIRENZE;Lungarno De Nicola SNC 50136;43.7662243307795;11.298588901452831
29232;4099;T.D.M. S.R.L.;GUIDONI SNC 50127;43.79771642383509;11.221474707126617
42384;54205;GESTIONI INNOVATIVE ITALIA S.R.L.;via antonio canova snc 50142;43.780536756385;11.192737519741058
24794;54221 Firenze De Nicola;Firenze De Nicola;VIA ENRICO DE NICOLA 16 50136;43.76611164942626;11.301458179950714
26855;55923 Guidoni FI;ENI FUEL S.P.A.;VIALE ALESSANDRO GUIDONI SNC 50127;43.79787772020989;11.214415401154838
41915;8086;T.D.M. S.R.L.;DEL SANSOVINO SNC 50142;43.77508320448903;11.227165013551712
51387;Aleardi s.a.s;Aleardi s.a.s;viale Aleardo Aleardi 45/47 50124;43.76927387381429;11.235237463788973
51085;AREA DI SERVIZIO FIRENZE;PETROL-FIN S.R.L.;via senese   ;43.74410829566967;11.226771289843782
6582;BAGNO A RIPOLI LOC. PONTE A EMA GOFFREDO DELLA TORRE;SERVIZI & GESTIONI ITALIA srl;GOFFREDO DELLA TORRE LOC. PONTE A EMA SNC 50126;43.74305002870873;11.288914812164307
49172;beyfin;G. & C. CARBURANTI DI TIBAUDO & COZZOLINO S.N.C.;VIA SENESE 186/A/2 50124;43.74564707292896;11.228195975352296
37866;BEYFIN;T.R.T DI FAINI ANDREA & C. SNC;VIA ROCCA TEDALDA 451 50136;43.76871030105542;11.316774710985555
14560;BEYFIN;PALAZZINI SERGIO;VIA REGINALDO GIULIANI  50141;43.820311715338356;11.222624033689499
52367;BRONZINO;D.A.R.M. PETROLI S.R.L.;VIA BRONZINO SNC 50142;43.7726773352397;11.223795527549775
54869;COSTANTINI FABIO;COSTANTINI FABIO;Via Sestese S.N. 50141, FIRENZE (FI) 185 50141;43.81994270161045;11.220960093740505
18157;DISTRIBUTORE IP;DISTRIBUTORE IP;VIALE F. TALENTI 56 50142;43.77388183344993;11.216896139950563
16784;DISTRIBUTORE IP - via baracca 48p;DISTRIBUTORE IP - via baracca 48p;VIA BARACCA 48P 50127;43.79032052943718;11.22289627790451
55851;DISTRIBUTORE IP - VIADOTTO DEL PONTE ALL'INDIANO ;DISTRIBUTORE IP - VIADOTTO DEL PONTE ALL'INDIANO ;Viadotto del Ponte all'Indiano  ;43.77498316625933;11.186431596511829
55790;DISTRIBUTORE IP VIA PISTOIESE 28;DISTRIBUTORE IP VIA PISTOIESE 28;PISTOIESE 26 50145;43.79542093064771;11.199671873635872
16788;DISTRIBUTORE IP- via baracca 38m;DISTRIBUTORE IP- via baracca 38m;VIA BARACCA 38m 50127;43.78901007774902;11.224363446235657
47442;EDRA OIL - BORGHINI;EDRA OIL - BORGHINI;Via Borghini  50133;43.78918642132511;11.267257332801819
47441;EDRA OIL - PELAGO;EDRA OIL - PELAGO;Via Forlivese 3 50060;43.775752541793516;11.445022821426386
47443;EDRA OIL - PUCCINI;EDRA OIL - PUCCINI;Piazza Puccini  50144;43.78614990300712;11.22868657112121
52373;ENI;DI.SA. S.N.C. DI SASSETTI ROBERTO & C.;PIAZZA L.B.ALBERTI, 1 5 50136;43.769785576477965;11.281087143171817
52368;ENI;AZIDUE SERVICE DI OMAR ES SABBAR;Via Bolognese 168 50100;43.806398742818324;11.274831542327872
10344;ENI 04812;BAROCCHI LUCA E MATTEO & C. S.N.C.;Via Del Romito 34 50134;43.78784839108384;11.245269120237708
51007;Eni 04891;Eni 04891;BACCIO DA MONTELUPO 115 50142;43.769008304718206;11.196181441478886
43670;ENI DI OMAZI SERVICE SNC;ENI DI OMAZI SERVICE SNC;VIALE EDOMONDO DE AMICIS 4729 50100;43.774186179513116;11.286364376057463
45037;ENI PIAZZA PIER VETTORI;ENI PIAZZA PIER VETTORI;piazza pier vettori 65 50144;43.771948231487606;11.232010845403693
46605;ENI STATION;ZECCA GIANLUCA S.P.A. ( SERVIZI - PROGETTI - APPALTI );VIA BARACCA 114 50127;43.79152794740759;11.218919903039932
52290;ESSO;ESSO;VIA FRANCESCO BARACCA 136/A 50127;43.7929069105935;11.214583989675656
42828;esso;ERRECI DI PERUCCA RICCARDO E VANNI COSIMO S.N.C.;VIA REGINALDO GIULIANI 126 50141;43.80134045828712;11.2380058775625
52508;Esso;NEW ART DECO' DI PATRIZIA LEGITTIMO;VIA BACCIO DA MONTELUPO 359 50142;43.765348889002645;11.181387667493814
53562;ESSO - FIRENZE PIAZZA MURATORI;PAD MULTIENERGY S.P.A;MURATORI 1/A 50134;43.6500331;10.608406
45243;ESSO FIRENZE - P.ZZA DONATELLO;PAD MULTIENERGY S.P.A;Piazza Donatello  50132;43.778213697210624;11.268246215938575
47007;ESSO FIRENZE - V. SENESE 2 STRADE;PAD MULTIENERGY S.P.A;Via Senese 2 Strade 199 50124;43.74881941421416;11.23417883757209
47122;ESSO FIRENZE - V. TORCICODA;PAD MULTIENERGY S.P.A;Via Torcicoda  50142;43.775735475845536;11.217565420797879
47001;ESSO FIRENZE - V.LE NENNI;PAD MULTIENERGY S.P.A;Viale Nenni 39 50143;43.764292843659376;11.200690197829811
47499;ESSO FIRENZE V.le Europa 203;PAD MULTIENERGY S.P.A;V.LE EUROPA 203  50122;43.75714368740046;11.298335546723518
51632;esso futura sas;esso futura sas;via senese loc galluzzo Km 296,112 snc 50125;43.74511211776015;11.22759818781549
41840;EUROPAM - FIRENZE;EUROPAM S.R.L.;PIAZZA PUCCINI  50100;43.786164275776756;11.228267850940938
38214;F.lli Campigli snc distributore Eni 04732;F.lli Campigli snc distributore Eni 04732;Piazzale Donatello  50132;43.77745152737205;11.269018913801915
15532;Fibbi&Valacchi snc;FIBBI E VALACCHI  S.N.C. DI FIBBI PAOLO & C.;VIA SENESE 150 50124;43.75025822578593;11.235971376299858
5527;FIRENZE;"IP SERVICES S.R.L.";Viale Pietro Nenni 16/1 50143;43.76593231492432;11.206875233135179
25344;FIRENZE - GIANNOTTI;"IP SERVICES S.R.L.";VIALE  GIANNOTTI  50126;43.75728934487764;11.287302682208974
34234;FIRENZE - REGINALDO GIULIANI 150;"IP SERVICES S.R.L.";VIA REGINALDO GIULIANI 150 50100;43.802717618523594;11.236761991798858
5628;Firenze - Viale Luder;Firenze - Viale Luder;VIALE GIOVANNI LUDER 41-42 50127;43.801268366030115;11.20362243558202
40878;Firenze - Viale XI Agosto;Firenze - Viale XI Agosto;Viale XI Agosto 100 50127;43.80446578354315;11.215470822721272
22332;FIRENZE BACCIO DA MONTELUPO,170-172;SERVIZI & GESTIONI ITALIA S.R.L.;BACCIO DA MONTELUPO 170-172 50142;43.766731101888254;11.185656487941742
30414;FIRENZE SIMONE MARTINI;SIRTAM S.P.A.;VIA SIMONE MARTINI  50142;43.774432143989806;11.199470534920692
6588;FIRENZE TALENTI 112;SERVIZI & GESTIONI ITALIA srl;VIALE F. TALENTI 112 50142;43.773687320062294;11.215008881614722
45078;Firenze V.le Guidoni;TORREGAS - S.R.L.;Viale Guidoni 222 57126;43.79937131775589;11.209431864671956
6591;FIRENZE VIA ARETINA 371;SERVIZI & GESTIONI ITALIA srl;VIA ARETINA 371 50136;43.76748218883609;11.304911703041057
41684;FIRENZE VIA BACCIO DA MONTELUPO N.18/P;SERVIZI & GESTIONI ITALIA S.R.L.;VIA BACCIO DA MONTELUPO 18/P 50142;43.77045041565588;11.208910446592313
22369;FIRENZE VIA CANOVA ANG.VIA FEDI;SERVIZI & GESTIONI ITALIA S.R.L.;VIA CANOVA ANG.VIA FEDI  50142;43.77729196505502;11.20542773306579
48844;FIRENZE VIA D'ANNUNZIO/ARCOLAIO;SERVIZI & GESTIONI ITALIA S.R.L.;VIA D'ANNUNZIO/ARCOLAIO  50135;43.775496921530944;11.290233181597333
9118;FIRENZE VIA DEI CATTANEI SNC;SERVIZI & GESTIONI ITALIA S.R.L.;VIA DEI CATTANEI SNC  50145;43.79650296459189;11.158780753612518
6584;FIRENZE VIA DI SCANDICCI 292-292/A;SERVIZI & GESTIONI ITALIA srl;VIA DI SCANDICCI 292-292/A 50143;43.760457411460905;11.205131315869153
37766;FIRENZE VIA PONTE ALLE MOSSE N. 154;SERVIZI & GESTIONI ITALIA S.R.L.;VIA PONTE ALLE MOSSE 154 50144;43.784318802532496;11.231749955819737
6589;FIRENZE VIA SENESE 207/A;SERVIZI & GESTIONI ITALIA srl;VIA SENESE 207/A 50125;43.7481949447391;11.232985282803384
6579;FIRENZE VIALE EUROPA;SERVIZI & GESTIONI ITALIA srl;VIALE EUROPA SNC 50126;43.75601480262551;11.304206044180319
6585;FIRENZE VIALE GUIDONI;SERVIZI & GESTIONI ITALIA srl;VIALE GUIDONI SNC 50127;43.797956039170856;11.213692458196988
14932;FIRENZE VIALE GUIDONI;OIL SERVICE S.R.L.;VIALE ALESSANDRO GUIDONI 207/209 50127;43.79899573852016;11.209166049957275
40639;FIRENZE VIALE GUIDONI/CARRAIA;SERVIZI & GESTIONI ITALIA S.R.L.;VIALE GUIDONI/CARRAIA  50127;43.79928778748094;11.208260449073805
32251;FIRENZE VIALE NENNI DIR FI;STAR SERVICE S.R.L.;VIALE NENNI DIR FIRENZE  50143;43.76504327293209;11.2061807513237
32252;FIRENZE VIALE NENNI DIR SCANDICCI;STAR SERVICE S.R.L.;VIALE NENNI DIR SCANDICCI  50143;43.76487471778861;11.202536970376968
11590;FIRENZE-VIA GIOVANNI AGNELLI;SERVIZI & GESTIONI ITALIA S.R.L.;VIA GIOVANNI AGNELLI S/N 50126;43.746975232809554;11.287371955680783
11587;FIRENZE-VIA MARAGLIANO 2;SERVIZI & GESTIONI ITALIA S.R.L.;VIA MARAGLIANO 2 50144;43.78435670519642;11.239780058860788
11589;FIRENZE-VIA PISANA 83/A;SERVIZI & GESTIONI ITALIA S.R.L.;VIA PISANA 83/A 50143;43.772192252750195;11.228280466270462
11588;FIRENZE-VIA SESTESE N 86;SERVIZI & GESTIONI ITALIA S.R.L.;VIA SESTESE 86 50141;43.81538257101056;11.226754051589978
39404;FUSI MARCO;FUSI MARCO;VIA CURZIO MALAPARTE 40 50145;43.79686267696318;11.158397868275642
52378;GAS STATION CASTELLO SAS;GAS STATION CASTELLO SAS;VIA VIA SESTESE, 97/99 97 50100, FIRENZE (FI) 97/99 50141;43.81724405253075;11.223786664418029
9060;GIGLIO S.N.C. DI CECCHINI GIANLUCA E CECCHINI ROSSANA;GIGLIO S.N.C. DI CECCHINI GIANLUCA E CECCHINI ROSSANA;VIA BACCIO DA MONTELUPO ANGOLO VIA LUNGA SNC 50142;43.77065144001496;11.210137009620667
9352;ICM - Firenze;I.C.M. SOCIETA' IN NOME COLLETTIVO DI BRUNO, CRISTIANO E FABRIZIO MAGGI;VIA SENESE 184 50124;43.7461807639952;11.228799819946289
52472;Il Cerchio Motori Srl;Il Cerchio Motori Srl;Via Pratese 93 50145;43.80052480157103;11.19148969650268
19230;Impianto ENI;CELLAI DANIELE & C. S.N.C.;DONATO GIANNOTTI 26/28 50126;43.76019842655871;11.28452219999997
48592;IMPIANTO ENI 4852;ALDERIGHI MAURIZIO S.N.C.;VIA DEL POLLAIOLO 150 50142;43.771376652615416;11.216186775463113
45656;IMPIANTO VIA BRONZINO SNC;IMPIANTO VIA BRONZINO SNC;VIA BRONZINO SNC 50142;43.77270818961268;11.223745000000008
16515;ip;DUE C SAS DI CENCINI FRANCESCO;viadotto dell indiano  50144;43.7750247155836;11.18645042181015
50787;IP;CALTABIANO FRANCESCO;Piazza Ferrucci  50126;43.76399775364684;11.270572543144226
55781;IP Viale Etruria ;IP Viale Etruria ;Viale Etruria 3 50142;43.771872730503745;11.232065749527386
53781;ITALIANA PETROLI;ITALIANA PETROLI;VIA BRONZINO, 4 50142;43.773629;11.232538
41006;LA BOLOGNESE;LA BOLOGNESE S.N.C. DI CAVALLO ROSA E LO PRESTI FRANCESCO;VIA DI SCANDICCI SNC 50143;43.75704382085943;11.199213713407516
28102;lingui leonardo 59178;lingui leonardo 59178;Viale U. Ojetti  50137;43.7828816;11.2936456
32714;M&Z snc di Marucelli Franca e Zanieri Jacopo;M & Z S.N.C. DI MARUCELLI FRANCA E ZANIERI JACOPO;VIA FAENTINA 380/A 50133;43.80047226922806;11.277049445438365
43543;MANNI ANDREA;MANNI ANDREA;ARETINA 224/A 50136;43.76744081089964;11.301922317790968
52423;newframar;newframar;via Bolognese  96 50139;43.79386566395113;11.261473894119257
55220;ovest bisenzio di fusi e c snc;OVEST BISENZIO DI FUSI E C. S.N.C.;SENESE SNC 50124;43.77;11.2601
29802;PATTINO SAS;PATTINO SAS;VIA PISTOIESE 500 50145;43.7940835912895;11.156173499336205
53752;PERETOLA NORD;ENI FUEL S.P.A.;Autostrada A11 FIRENZE-PISA N., dir. Firenze ;43.819695;11.1731615
13623;PINI E SETTESOLDI SNC;PINI LEONARDO E SETTESOLDI IACOPO - SOCIETA' IN NOME COLLETTIVO ( IN FORMA ABBREVIATA PINI E SETTESOLDI - SNC);VIALE DEI MILLE 7 50131;43.78041060340574;11.279211394442768
30222;PV 4740;GESTIONI INNOVATIVE ITALIA S.R.L.;VIA SENESE LO.GALLUZZO SNC 50124;43.73848661757374;11.224814057350159
24905;PV 4875;GESTIONI INNOVATIVE ITALIA S.R.L.;VIA SENESE- LOC. I ROSSI 194, 50124  ;43.74296572085396;11.225570440292358
9269;Q8 f.lli iacoviello;Q8 f.lli iacoviello;VIA REGINALDO GIULIANI 556 50141;43.82086326001945;11.22130036354065
38216;Reginaldo Giuliani;"IP SERVICES S.R.L.";via Reginaldo Giuliani 96 50141;43.79991627292815;11.23872734606266
17817;riccardo carotti sas;RICCARDO CAROTTI S.A.S.;REGINALDO GIULIANI 49 50141;43.79911677847703;11.238952947885082
54539;SHELL - FIRENZE VIA BACCIO DA MONTELUPO 4 ANGOLO VIA LUNGA;PAD MULTIENERGY S.P.A;BACCIO DA MONTELUPO SNC 50142;43.7706351;11.2109398
54933;SHELL - FIRENZE VIA REGINALDO GIULIANI, 126;PAD MULTIENERGY S.P.A;REGINALDO GIULIANI 126 50141;43.801340000000003;11.237830000000001
42776;SHELL FIRENZE - V.LE EUROPA (ANG. VIA ALBANIA);PAD MULTIENERGY S.P.A;Viale Europa  50126;43.75661987751152;11.29338368646036
19009;staz. di serv. Eni M.F snc di Vitellozzi;M.F. S.N.C. DI VITELLOZZI MATTEO & C.;via pistoiese 223 50145;43.79384977691213;11.187198758125305
35582;Stazione Carburante Ludoil s.p.a.;Stazione Carburante Ludoil s.p.a.;VIA VIA LUNGO L'AFFRICO SNC 50137, FIRENZE (FI) SNC 50137;43.77480418140975;11.286990587388573
53766;Stazione IP di Corti Andrea;Stazione IP di Corti Andrea;LUIGI GORI 2/1 2/2 50127;43.795575988579934;11.206538826227188
14370;STAZIONE SERVIZIO CHIARACANE;CHIARACANE SALVATORE;PIAZZA L. B. ALBERTI  50136;43.76969697993754;11.281165172922318
11019;tamoil ;tamoil ;VIALE EUROPA 46 50126;43.75661573034039;11.2928504694504
42919;TIBER FIRENZE;TIBER FIRENZE;VIALE PAOLI 15 50137;43.77899563614063;11.282336711883545
29123;TOTALERG;TOTALERG;VIALE ETRURIA 30 50142;43.77293007919961;11.199337813491866
28290;TotalErg;AUTOCARROZZERIA DUE T CAR LIFTING SERVICE DI TIZIANO TRALLORI;VIA RONDINELLA SNC 50135;43.77527697291198;11.292230039834976
16947;DUE ESSE SNC;DUE ESSE SNC;VIA IMOLESE 35 50033;44.11850192072636;11.38371302841665
19266;S.I.M srl Pietramala;S.I.M srl;Statale 65 della Futa, Km. 55, dir. Bologna  ;44.16329230044633;11.331768482923508
34931;ADS FUCECCHIO;ALA CARBURANTI S.R.L.;VIA STRADA PROVINCIALE NUOVA FRANCESCA BIS SNC 50054, FUCECCHIO (FI) 7 50054;43.73815207963681;10.778999261376952
46455;AQUILA;2ESSE DI STABILE SABRINA;VIA PISTOIESE 5/A 50054;43.73688705040582;10.809774398803711
55334;B.FUEL FUCECCHIO;B.FUEL FUCECCHIO;VIA CIRCONVALLAZIONE FRANCESCA BIS 10/P 50054;43.72248243242106;10.80780029296875
13728;ENI;ENI;VIALE BUOZZI 122/124 50054;43.73165055750501;10.802912685319484
5031;Eni - Fucecchio;Eni - Fucecchio;STRADA PROV.LE ROMANA LUCCHESE 4, 50054  ;43.770539876620504;10.726293325424194
50435;FUCECCHIO;STAR SERVICE S.R.L.;VIA SAN MINIATESE - LOC SAN PIERINO  50054;43.70861066728562;10.821283465596743
6583;FUCECCHIO ROMANA LUCCHESE 330-GALLENO;SERVIZI & GESTIONI ITALIA srl;ROMANA LUCCHESE 330-GALLENO  50054;43.776800274869736;10.716819763183594
53741;IP 45626;IP 45626;VIA VIA PROV.NUOVA FRANCESCA BIS SNC 56029, SANTA CROCE SULL'ARNO (PI) 18 50054;43.734785072563405;10.772718640945138
35444;MAC;NERI LUCA;VIA VIA  CESARE   BATTISTI 176 50054, FUCECCHIO (FI) 176 50054;43.72448071803517;10.821073204278946
50664;My Oil;My Oil;Via provinciale fiorentina 64 50054;43.7214461887574;10.799143407437555
19977;Quattropetroli;BANTI PAOLO;via Delle Cerbaie Massarella 53 50050;43.78862521582311;10.773982272578223
53660;IP;IP;VOLTERRANA SNC 50050;43.5449379;10.9568443
25218;MALORI FUELS & EXTRA;MALORI FUELS & EXTRA;VIA VIA MORANDI -  LOC. RICAVOLI 18/B 50050, GAMBASSI TERME (FI) 18/B 50050;43.582453911686194;10.965288877487183
54828;IP;IP;S.R.T. 222 CHIANTIGIANA KM.9+980 50022;43.7186;10.9425
46425;Italiana Petroli;PETROL B DI VIERI BALDANZI;SS 222 Chiantigiana  4 50022;43.59865492098936;11.314635769317192
32442;Poli Service snc;POLI SERVICE S.N.C. DI POLI EMANUELE E C.;S.R.T.222 CHIANTIGIANA KM9+980 SNC 50022;43.681824915271264;11.292668219574011
52254;Q8;ENI;SR 222 Km 22,317  50022;43.60015932315713;11.312622874975204
54671;SHELL;GREVE SERVICE DI POLI SIMONE;SRT CHIANTIGIANA SNC 50022;43.58727552641908;11.314818179237363
55927;SUPERGAS;SUPERGAS;PIAZZA DELLA FIERA  50022;43.67173;11.35445
40162;BARONI DIMITRI;BARONI DIMITRI;VIA IMPRUNETANA PER TAVARNUZZE 8B 50023;43.68860262186948;11.249727085232735
7226;m&m di maionchi;m&m di maionchi;VIA CASSIA 192 50023;43.7095928217255;11.215973839811682
9947;CAR GOLD DI BANDINI DANIELE E GAGGILI STEFANO;CAR GOLD DI BANDINI DANIELE,GAGGIOLI STEFANO & C. S.A.S.;VARIANTE STRADA PROV.N12 - -;43.70969678951952;11.06446087360382
4882;Delfini Carburanti - Lastra a Signa;Delfini Carburanti - Lastra a Signa;VIA DEGLI SCALPELLINI 1 50055, LASTRA A SIGNA (FI) 1 50055;43.770751575715195;11.122662797570229
18434;impianto eni 04839 alderighi snc;ALDERIGHI MAURIZIO S.N.C.;Statale 67 Tosco Romagnola, Km. 65, dir. firenze - 50055;43.7695791833251;11.110860407352448
18433;impianto eni 04842 alderighi snc;ALDERIGHI MAURIZIO S.N.C.;Statale 67 Tosco Romagnola, Km. 67, dir. firenze -  50055;43.7743979894223;11.088401600718498
26637;Lastra a Signa - S.G.C. FI-PI-LI LOC. PIANACCI;SERVIZI & GESTIONI ITALIA S.R.L.;S.G.C. FI-PI-LI LOC. PIANACCI  50055;43.735667676319856;11.106273829936981
11579;LASTRA A SIGNA-SS. 67 KM. 69+689;SERVIZI & GESTIONI ITALIA S.R.L.;SS. 67 KM. 69+689 S/N 50055;43.76991477706214;11.116764780426024
46724;Metano Toscana GINESTRA F.NA;METANO TOSCANA S.R.L.;VIA VIA VAL DI PESA SNC 50055, LASTRA A SIGNA (FI) KM 13,75 50055;43.71499185870938;11.05290377546309
46819;SHELL - LASTRA A SIGNA;PAD MULTIENERGY S.P.A;Via Livornese 65 ;43.76959860238855;11.119470377023218
39034;7080;T.D.M. S.R.L.;S.S. 302 KM. 64+450 - 50034;44.085639122737184;11.626363545656204
11586;MONTAIONE-VIA MURA 45;SERVIZI & GESTIONI ITALIA S.R.L.;VIA MURA 45 50050;43.57480210156574;10.889474898576736
5658;PA.PETROL SNC;PA.PETROL S.N.C. DI MONICA PARRI & C.;LEONARDO DA VINCI 71 50050;43.54433717198904;10.927308797836304
26443;ENI;TOGNETTI LUCA;Statale 67 Tosco Romagnola, Km. 53+577mt., dir. EMPOLI - 50056;43.72751746500209;10.993224084377289
46048;ESSO MONTELUPO FIORENTINO;PAD MULTIENERGY S.P.A;Via Caverni 34 50056;43.7312871990499;11.018717015169935
15448;MONTELUPO FIORENTINO;MONTELUPO FIORENTINO;VIA VIA DI BRAMASOLE 1 50056, MONTELUPO FIORENTINO (FI) 1 50056;43.713773633865834;11.042733639478683
24660;MONTELUPO FIORENTINO - SS TOSCO ROMAGNOLA;SERVIZI & GESTIONI ITALIA S.R.L.;Statale 67 Tosco Romagnola, Km. 55, dir. Empoli - 50056;43.727660519343374;11.020466685295105
47606;STAZIONE DI SERVIZIO D'ANGELO SAS;STAZIONE DI SERVIZIO D'ANGELO;RAFFAELLO CAVERNI 141 50056;43.72980170793105;11.017400845885277
46635;Gozzi Maico;Gozzi Maico;VIA TADDEINI S.N. 50025, MONTESPERTOLI (FI) SNC 50025;43.64605;11.06513
18791;LUPI SRL;LUPI SRL;s.p. 80 del Virginio   50025;43.67408687396308;11.074816882610321
19471;MONTAGNANA ;S.A.C. S.N.C. DI BENINCASI LEONARDO E C.;VIA VOLTERRANA NORD (DISTRIBUTORE)  50025;43.672338920315646;11.103678792715073
49397;Firenze - Palazzuolo sul Senio;Firenze - Palazzuolo sul Senio;PIAZZA RAGAZZINI SNC 50035;44.11387667078642;11.548999994993205
46768;Stazione di servizio IP di Nanni Barbara;NANNI BARBARA;Via Casentinese km 14,5 50060;43.7797336195341;11.594371108092218
54667;STAZIONE SERVIZIO IP CONSUMA;STAZIONE SERVIZIO IP CONSUMA;STRADA STATALE  70 KM 14,50 SNC 50060;43.779475909085846;11.594395637512207
4662;distibutore q8;distibutore q8;Statale 67 Tosco Romagnola, Km. 1+600, dir. firenze  50065;43.770983804704066;11.429502815008163
8179;ENI - PONTASSIEVE;ENI - PONTASSIEVE;Variante SS67 Tosco-Romagnola Km 1,335  50065;43.771144175787164;11.426060199737549
45939;ENI OMAZI SERVICE;ENI OMAZI SERVICE;via Aretina 64 50065;43.77611294972306;11.427404953372957
46789;ESSO PONTASSIEVE - LOC. LE SIECI;PAD MULTIENERGY S.P.A;Loc. Le Sieci - V. Aretina 29 ;43.78470120413844;11.401348239635135
13829;IP - PONTASSIEVE;IP - PONTASSIEVE;Viale Hanoi 1 50065;43.771477800890196;11.426837692590327
24330;AREA DI SERVIZIO eni BARTALUCCI STEFANO;AREA DI SERVIZIO eni BARTALUCCI STEFANO;VIA GRAMSCI  50066;43.68024485236639;11.531932353973389
53509;ARNO OVEST;ARNO Ovest;Autostrada A1 MILANO-NAPOLI,  Km. 321,5, dir. Napoli 50063;43.64946028543757;11.464040279388428
13575;BEYFIN;BEYFIN;VIA RONA  50066;43.63296447210156;11.472883522510529
33174;IP pian di rona;reggello;LOCALITA' RONA DI SOPRA 139/D 50066;43.642573605035345;11.466326862573624
38374;Paolo Pagliazzi;PAGLIAZZI PAOLO;Statale 69 di Val d'Arno, Km. 10+963, dir. Firenze - 50066;43.69936811160266;11.464557945728302
29475;REGGELLO;MARINO S.N.C. DI FERRINI SIMONE & C.;VIA DI MEARINO SNC 50066;43.67264816242499;11.526604145765305
49747;6098;T.D.M. S.R.L.;LOC. LA CHIOCCIOLA SNC 50067;43.70706894190441;11.399626941104488
30204;Mabe service Rignano ;M.A.B.E SERVICE DI AGLIETTI MARCO E BARBIERI EMILIANO SNC;LOC. PIAN DELL'ISOLA 33 50063;43.703994015690434;11.449559032917023
51693;4704 – Rufina;ENI FUEL S.P.A.;VIA DUCA DELLA VITTORIA, 10  50068;43.82605277651483;11.487259170602144
8000;carlo misuri;carlo misuri;Statale 67 Tosco Romagnola, Km. 106+625, dir. firenze  50068;43.81896824720896;11.48401066660881
13833;Q8 - CONTEA;Q8 - CONTEA;Via Forlivese 1 50060;43.859237118984865;11.526679183697532
52266;AQUILA;AQUILA;VIA VOLTERRANA  80/P 50026;43.68747233394747;11.136358881539739
13596;ENI;BELLINI FERDINANDO E COLI ANDREA - SOCIETA' IN NOME COLLETTIVO;VIALE G. PASCOLI SNC 50026;43.657274921248465;11.18776872754097
52253;Q8;ENI;Via Grevigiana 86 50026;43.63688230783481;11.221677213907242
6920;Q8 - SAN CASCIANO;Q8 - SAN CASCIANO;Via Giuseppe di Vittorio 57/A  50026;43.66114483056827;11.182862151589953
50569;SAN CASCIANO EST;NUOVA SIDAP  S.R.L.;RA03 RACCORDO AUTOSTRADALE SIENA-FIRENZE, Km. 43+600, Nord - 50026;43.61881076491031;11.187634407198951
40908;SAN CASCIANO OVEST;NUOVA SIDAP  S.R.L.;Autostrada RA03 RACCORDO AUTOSTRADALE SIENA-FIRENZE, Km. 41+983, dir. Sud - 50026;43.60595742207956;11.191051080822945
46493;TM04790;SALIERI NICO;SS. 67 KM. 128+070 67 50060;43.92856657351415;11.621556256894905
54595;Bambi Alfiero e Bambi Andrea Snc;BAMBI ALFIERO E BAMBI ANDREA - S.N.C.;VIA DEI TURRI 20 50018;43.757371959394106;11.187066905487882
5291;Firenze - Scandicci;Firenze - Scandicci;VIA PISANA  50018;43.76508851230084;11.162133514881134
13739;METANO SCANDICCI;METANO SCANDICCI;VIA DEI PRATONI 11/13 50018;43.77251360679481;11.151174889935305
26911;PV 4843;GESTIONI INNOVATIVE ITALIA S.R.L.;VIA B.DA MONTELUPO SNC 50018;43.7649494324733;11.177605837583542
51427;PV ALA SCANDICCI;ALA CARBURANTI S.R.L.;VIA EMPOLESE 3 50018, SCANDICCI (FI) 3 50018;43.69610906585635;11.101474761962885
5940;SCANDICCI;"IP SERVICES S.R.L.";Via Pisana KM 71+896  50018;43.765768433187965;11.15582513988113
42206;soc torre;TORRE DI RICCITELLI STEFANO & C. - S.N.C.;VIA DONIZETTI 79 50018;43.760083575512105;11.180273086577586
10661;stazione di servizio esso di Zurlo & C snc;STAZIONE DI SERVIZIO DI ZURLO DENNY E C. S.N.C.;DELLE NAZIONI UNITE 10 50018;43.76736953009038;11.158558130264282
20989;beyfin belli;BELLI GIAMPIERO & VALTER S.N.C.;LA TORRE-PETRONA 33/B-C 50038;43.96355529033261;11.338669806718826
9112;SAN PIERO A SIEVE - TAIUTI;SIRTAM S.R.L.;S.P. 65 BOLOGNESE - SAN PIERO A SIEVE  50037;43.94856940024065;11.311371624469757
23784;SAN PIERO A SIEVE MASSARONDINAIA;STAR SERVICE S.R.L.;VIA PROVINCIALE MASSARONDINAIA  50037;43.96189880822631;11.306119859218597
52786;SCARPERIA VIA GIACOMO MATTEOTTI 47;SERVIZI & GESTIONI ITALIA S.R.L.;MATTEOTTI 47 50038;43.9924496;11.3542353
53026;SOPETI SAN PIERO;SOCIETA' PETROLIFERA TIRRENA - SO.PE.TI. - S.R.L.;STATALE 65 KM24+250 50038;43.95014376867223;11.311659761844636
53231;STAZIONE DI SERVIZIO " OIL ITALIA ";STAZIONE DI SERVIZIO " OIL ITALIA ";CASE NUOVE TAIUTI SNC 50038;43.944492137607476;11.309620964888536
27356;Stazione Rifornimento AQUILA di Galeotti Daniele,Mugelli Gabriele e c. snc;GALEOTTI DANIELE MUGELLI GABRIELE E C. SNC;VIALE KENNEDY 115 50038;43.97884602604943;11.33737564086914
3510;BISENZIO OVEST;blu service snc;Autostrada A1 MILANO-NAPOLI, Km. 279+800, dir. Sud - 50019;43.83969433000652;11.162055568122923
55814;DUE V s.n.c.;DUE V s.n.c.;Via dell'Osmannoro 244 50019;43.8208308;11.1904756
23267;ENI DI MATTEUCCI RICCARDO;ENI DI MATTEUCCI RICCARDO;VIALE  PRATESE 94 50019;43.84203804956496;11.1860592539673
47006;ESSO SESTO FIORENTINO - V.LE PRATESE;PAD MULTIENERGY S.P.A;Viale Pratese 68 50019;43.84124178274129;11.187481714421668
55852;ESSO SESTO FIORENTINO VIA LUCCHESE 116 LOC. OSMANNORO;ESSO SESTO FIORENTINO VIA LUCCHESE 116 LOC. OSMANNORO;Via Lucchese 116 - Loc. Osmannoro  50019;43.808750000000003;11.172816600000001
36724;FIRENZE NORD;SARNI S.R.L.;Autostrada A1 MILANO-NAPOLI, Km. 4+600, dir. NORD - 50019;43.83286286066999;11.160603314638138
14071;il pegaso s.n.c. di margarini massimo e david;il pegaso s.n.c. di margarini massimo e david;VIA GRAMSCI 474/476 50019;43.82955304864728;11.208816466270491
29957;IP;IP;GIULIO CESARE 35/37 50019;43.836221911640365;11.190971932540833
55514;MASSIMO MARTINI;RAUGEI EDO & BIANCALANI ROBERTO S.A.S. DI MARTINI MASSIMO & C.;PRATESE 36 50019;43.83929818098948;11.191286349773426
4995;OILFIN;OILFIN S.R.L.;VIA FERRUCCIO PARRI 6/8 50019;43.840595625331765;11.175780603388148
53062;PERETOLA NORD;PERETOLA NORD;Autostrada A11 FIRENZE-PISA N.,  Km. 3,300, dir. NORD - 50019;45.4642035;9.189982
3500;PERETOLA NORD;sara srl;Autostrada A11 FIRENZE-PISA N., Km. 3+000, dir. Ovest - 50019;43.81950641010759;11.173160117721523
3861;PERETOLA SUD;ENI FUEL S.P.A.;Autostrada A11 FIRENZE-PISA N., Km. 3+000, dir. Est - 50019;43.81833036988592;11.172902584075928
34321;SESTO FIORENTINO;STAR SERVICE S.R.L.;VIA P PASOLINI  50019;43.81985050745649;11.20680570602417
43490;stzione Q8 JKV sas;JKV DI NIERI VALENTINA & C SAS;via provinciale lucchese 31 50019;43.80543239788912;11.180034955440987
29223;8088;T.D.M. S.R.L.;66 KM. 15+702 - 50058;43.811217647749274;11.080061942338943
11155;Brini e Bettarini;BRINI CARLO & BETTARINI ROBERTO S.N.C.;VIA PISTOIESE 327 50058;43.813252484045236;11.066374831213352
54272;Esso 331627;Esso 331627;Via Dei Colli s.s. 325 km 88+665 snc 50058;43.8003905;11.1068285
6937;Vezzosi Mauro e Filippo snc;Vezzosi Mauro e Filippo snc;viale Arte della Paglia 10, 50058  ;43.78660944463103;11.101405620574951
54410;MV carburanti;MV carburanti;Via del Chianti 10  50028;43.5618288;11.1802515
41476;stazione Eni 14708;VANNI DUCCIO;via chiantigiana s.c. 50028;43.54588257797509;11.227458715438843
51319;DISTRIBUTORE IP - VAGLIA;DISTRIBUTORE IP - VAGLIA;VIA FIORENTINA / 50036;43.84536694260526;11.290465713517117
5084;Chioscar snc;CHIOSCAR SNC DI CIUCCHI FRANCESCO E ROSARI MARCO;VIA BARDUCCI, RENZE 21 50039;43.93790803372079;11.44159020370489
7673;STAZIONE DI RIFORNIMENTO SHELL;STAZIONE DI RIFORNIMENTO ESSO;VIA VIA MARTIRI DI CAMPO DI MARTE 10 50039, VICCHIO (FI) 10 50039;43.93402513288584;11.458285568122847
42222;8087;T.D.M. S.R.L.;PROV.LE MERCATALE 250 50059;43.74177777991287;10.901294071163875
20277;desideri snc ;DESIDERI S.N.C. DI DESIDERI LUIGI E ALESSANDRO E C.;VIA L. DA VINCI 371/373 50059;43.73129695039245;10.917478501796722
8492;Eni;Eni;via provinciale mercatale 8/10 50059;43.77116548106554;10.917835235595703
51528;VINCI VIA PALMIRO TOGLIATTI 219;SERVIZI & GESTIONI ITALIA S.R.L.;VIA PALMIRO TOGLIATTI 219 50053;43.72794327649014;10.936059269940577
52654;AREA SERVIZIO CASE ROSSE;AREA SERVIZIO CASE ROSSE;LOC. IL PIANO SP 64 IL CIPRESS  58031;42.89647643518997;11.517080962657928
20861;Stazione di servizio Esso;RAFFI MASSIMILIANO;Strada Provinciale Arcidosso  58031;42.87163177024889;11.532678008079529
29676;AUTOGRILL CAPALBIO;AUTOGRILL CAPALBIO;Statale 1 Via Aurelia, Km. 132+150, dir. SUD  58011;42.41494987355314;11.36535108089447
13840;BAR IL GIRASOLE;BAR IL GIRASOLE;Statale 1 Via Aurelia, Km. 127, dir. Nord  58011;42.414852132217014;11.425706592343204
29614;CAPALBIO - AURELIA;"IP SERVICES S.R.L.";SS 1 AURELIA KM 128,720  58011;42.4149039604422;11.407037550926248
6573;CAPALBIO LC.NUNZIATELLA S.S. 1 AURELIA KM. 133;SERVIZI & GESTIONI ITALIA srl;S.S. 1 AURELIA KM. 133 LC.NUNZIATELLA SNC 58100;42.41502670808588;11.351958741738827
51433;capalbio sud - l'oasi di Capalbio;PANTA IMPIANTI DISTRIBUZIONE CARBURANTI E AFFINI  S.R.L.;1 Via Aurelia, Km. 130, roma - 58011;42.41462638642552;11.384947744152896
48849;ENERPETROLI CAPALBIO BORGO CARIGE;CIANCHETTA EMANUELE;LOCALITA' BORGO CARIGE SNC 58011;42.42472211082569;11.415989064143227
30452;CASTEL DEL PIANO - ROMA 21;"IP SERVICES S.R.L.";VIA ROMA 21 58033;42.88728820857191;11.535596559524492
15001;CECCARELLI MARIO;CECCARELLI MARIO;VIA DEL GALLACCINO 14 58033;42.89072182318114;11.528104171156883
53955;esso;esso;DEL PORTO 3 58043;42.80519;10.76490
27178;esso;esso;PROVINCIALE CASTIGLIONESE SNC 58043;42.768715390974336;10.885596937196397
25761;SELF AREA 4966;DI VIVONA FRANCESCO;VIA ANSEDONIA  32 58043;42.76121886274206;10.887711010873318
9749;TAMOIL;ELETTRAUTO SERVICE S.N.C. DI VITI GIANCARLO E C.;STRADA PROV.LE  3 PADULE SNC 58043;42.771032556185325;10.889827609062195
27862;TOTAL EXPO;TOTALEXPO DI ANTONIO BENINCASA;MARCONI 88 58043;42.76500741825929;10.871012705804446
50659;CINIGIANO;SYNERGY S.R.L.;Loc la Crocina snc 58044;42.893776861578246;11.398507663698842
32459;CINIGIANO - AMIATA MONTICELLO;"IP SERVICES S.R.L.";VIA AMIATA MONTICELLO  58047;42.88420048306433;11.479445170553504
29960;CINIGIANO - SP.CIPRESSINO;"IP SERVICES S.R.L.";S.P. 64 CIPRESSINO KM 10,662  58044;42.95747589406813;11.3833570846557
8297; PAGANICO;SIRTAM S.R.L.;Statale 223 di Paganico, Km. 22+700, dir. SIENA - 58045;42.928933895360956;11.265846490859985
23295;CIVITELLA PAGANICO CIPRESSINO;SIRTAM S.R.L.;S.P. 64 DEL CIPRESSINO  58045;42.92920648520498;11.266331970691681
47518;ENI SA.MA POWER S.A.S.;SA.MA.POWER S.A.S. DI NICOLA SABATINI & C.;LOC.LAMPUGNANO SS223 KM.34+806 SNC 58045;43.02869702857576;11.278731226921076
7021;IP;IP;VIA FRAZ. CIVITELLA MARITTIMA - VIA GROSSETO 1 58045, CIVITELLA PAGANICO (GR)  58045;42.997057634401386;11.285233497619629
42224;Piccinifuels - Civitella;Piccinifuels - Civitella;223 di Paganico, Km. 26.603, Grosseto  58045;42.97773110825657;11.282919279762268
36054;Autolavaggio D'avino Fabio ;TOTAL ERG DI D' AVINO FABIO;Via litoranea  4 58022;42.9262896818544;10.751923352710946
21576;cardini e lazzerini snc;CARDINI E LAZZERINI SNC DI CARDINI EDO E LAZZERINI MANOLA;VIA AURELIA SNC 58022;42.936195224194975;10.778027772903442
10222;Distributore di Follonica;Distributore di Follonica;DIACCIO  58022;42.93945991506522;10.781149574471556
16317;DISTRIBUTORE ESSO DI SCOZIO GIUSEPPE;DISTRIBUTORE ESSO DI SCOZIO GIUSEPPE;VIA BICOCCHI   58022;42.92594062610336;10.756133973336546
11131;ENERPETROLI - PV FOLLONICA U.BASSI - GR;ENERPETROLI S.R.L.;VIA UGO BASSI SNC 58022;42.92796166424806;10.753251694527762
13142;ENI \tS & G SNC DI FERRETTI STEFANO E GIACOMO;ENI \tS & G SNC DI FERRETTI STEFANO E GIACOMO;S.P. 152 (vecchia aurelia) km42+300, snc SNC 58022;42.93564893727554;10.775361061096186
53298;f.lli carli andrea e claudio snc;f.lli carli andrea e claudio snc;DELLE COLLACCHIE SNC 58022;42.914887023418714;10.769160801049793
49043;Follonica;NUOVA SIDAP  S.R.L.;1 Via Aurelia, Km. 226+673, Nord - 58022;42.951615245171425;10.776901245117188
31855;FOLLONICA - SP 152 KM 46 VIA AURELIA NORD;SERVIZI & GESTIONI ITALIA S.R.L.;SP 152 KM 46 VIA AURELIA NORD  58022;42.93742614428065;10.730392076075077
34730;FOLLONICA B.FUEL;FOLLONICA B.FUEL;s.p. 152 "Vecchia Aurelia" km 42,500  58022;42.935584117195944;10.773259713425773
11130;FOLLONICA VIA SANTINI - GR;ENERPETROLI - PV FOLLONICA G.B. SANTINI - GR;VIA SANTINI SNC 58022;42.92596203372656;10.753037631511688
25242;esso;esso;via curiel 10 bagno di gavorrano  58023;42.93840893267775;10.887863612233787
11614;GAVORRANO-LOC.LA MENGA VARIANTE AURELIA;SERVIZI & GESTIONI ITALIA S.R.L.;LOC.LA MENGA VARIANTE AURELIA S/N 58023;42.951404172544585;10.908896559524464
52003;04920;STEFANINI EMILIO;via Scansanese 25 58100;42.761393034616034;11.121452217349777
55864;4385;4385;Via Pietro Mascagni 77  58100;42.759689416826866;11.122387929222226
54957;4957 Grosseto Aurelia;4957 Grosseto Aurelia;VIA AURELIA SUD KM 179+720   ;42.74396;11.11805
51871;4961 – Grosseto Batignano;PV 4961 – Grosseto Batignano;Strada Statale 223 Km 8+300 Fraz. Batignano  58100;42.84048810029954;11.152971450315212
51870;53628 – Grosseto;PV 53628 – Grosseto;Via Aurelia Sud  58100;42.75121550266971;11.112872188121745
44758;8090;T.D.M. S.R.L.;SENESE 147 58100;42.771238651453366;11.120467362565591
8477;8091;PIAZZI GIANNI;Statale 1 Via Aurelia, Km. 185.500, dir. sud - -;42.74505741088775;11.116195321083069
22979;Aquila Il Bucchero;IL BUCCHERO DI COSMO LUCIANO & C. S.N.C.;Statale 223 di Paganico, Km. 1+370, dir. grosseto siena - 58100;42.81016326457247;11.13338828086853
48115;AREA DI SERVIZIO GOLDENGAS GROSSETO;AREA DI SERVIZIO GOLDENGAS GROSSETO ESSO;Via Aurelia Sud 51 58100;42.746659874902896;11.114845173748495
46816;Bernardini - Grosseto;Bernardini - Grosseto;223 KM 2 + 509 SNC 58100;42.82850731826267;11.138811707496643
4652;Braccagni;NUOVA SIDAP  S.R.L.; VIARIANTE SS1 AURELIA K196+445 SNC, 58100 - -;42.86825061011571;11.076123118400574
24630;CONAD SUPERMERCATI GROSSETO;CLODIA COMMERCIALE SRL;Via Bulgaria  35 58100;42.77558358909064;11.115090250968933
50693;CONAD SUPERMERCATO GROSSETO;CONAD SUPERMERCATO GROSSETO;VIA SCANSANESE  58100;42.7623715074205;11.132437084655775
38753;DI VIVONA FRANCESCO;DI VIVONA FRANCESCO;VIA MONTEROSA 152 58100;42.772862853890956;11.113673374056816
22531;Distributore Carburati TOTALERG di Fuligni Fabio;Distributore Carburati TOTALERG di Fuligni Fabio;VIA SCANSANESE, STIACCIOLE 444  58100;42.77638834312402;11.172751846319898
55696;DISTRIBUTORE ENI;DISTRIBUTORE ENI;SENESE 85 58100;42.76850055496255;11.119270903110532
32028;EMPORIO DA PIETRINO SNC;EMPORIO DA PIETRINO S.N.C. DI GRANDINI LUISELLA E CHERUBINI FABRI ZIO;VIA SCANSANESE 480 58100;42.77957656692439;11.177132427692413
34028;ENERPETROLI - PV GROSSETO VIA GIULIO CESARE;ENERPETROLI S.R.L.;VIA GIULIO CESARE 73 58100;42.76644003508155;11.102463752031326
41612;ENERPETROLI - PV GROSSETO VIALE DELLA REPUBBLICA;ENERPETROLI S.R.L.;VIALE DELLA REPUBBLICA 21 58100;42.755305376599225;11.10461113693998
31126;ENI DI PASQUI PAOLO;PASQUI PAOLO;VIA AURELIA NORD KM. 162  58100;42.778787126629865;11.09894871711731
52481;ESSO - GROSSETO BIVIO ROSELLE 104;PAD MULTIENERGY S.P.A;ROSELLE S.S. 223 KM 2 + 969 58100;42.797874424406324;11.134345447560635
53716;ESSO - GROSSETO V.LE SONNINO 57;PAD MULTIENERGY S.P.A;SONNINO 57 58100;43.7063373;13.2103381
50158;ESSO GROSSETO;JONATHAN PNEUMATICI DI FREGOLI JONATHAN;VIALE SONNINO 57 58100;42.752559403108464;11.112141907215113
13966;fanfani marco;fanfani marco;AURELIA SUD 3 58100;42.751873599517296;11.112678945064545
51067;Grifo Carburanti;Grifo Carburanti;VIALE CARAVAGGIO 65 58100;42.74916869923278;11.11189277041856
24199;GROSSETO;GROSSETO;VIA AURELIA NORD 50 58100;42.769542447545476;11.107818961143494
25075;GROSSETO - AURELIA NORD;"IP SERVICES S.R.L.";VIA AURELIA NORD 17  58100;42.768819690086296;11.108724139881133
30299;GROSSETO - VARIANTE SS1;"IP SERVICES S.R.L.";VARIANTE S.S. 1 - AURELIA KM. 189,260  58100;42.805611807031255;11.093983906745962
27933;Grosseto Aurelia;"IP SERVICES S.R.L.";Via Aurelia Nord 98 58100;42.77335014973591;11.10515333712101
50510;GROSSETO BANDITELLA;SIRTAM S.P.A.;1 Via Aurelia, Km. 170+999, GROSSETO - 58100;42.6748650748414;11.141434816445214
6574;GROSSETO DEI MILLE 107;SERVIZI & GESTIONI ITALIA srl;VIA DEI MILLE 107 58100;42.752922768288286;11.11264944076538
21656;GROSSETO ROSELLANA, 135;SERVIZI & GESTIONI ITALIA S.R.L.;ROSELLANA 135 58100;42.79541954741251;11.132650673389435
6572;GROSSETO VIA AURELIA NORD KM.184;SERVIZI & GESTIONI ITALIA srl;VIA AURELIA NORD KM.184 SNC 58100;42.778203603749915;11.100584864616394
42100;GROSSETO VIALE GIUSTI;STAR SERVICE S.R.L.;VIALE GIUSTI  58100;42.77467710082975;11.101890429854393
11613;GROSSETO-VIA AURELIA NORD 120;SERVIZI & GESTIONI ITALIA S.R.L.;VIA AURELIA NORD 120 58100;42.77693034423373;11.101794635581996
9294;IP;IP;VIA AURELIA KM.174 SN, 58100 183 ;42.70787446566384;11.14086627960205
38925;IP MARTINI ALESSANDRO ;IP;CASTIGLIONESE 49 58100;42.77050605994606;11.093505844473839
50649;IP STAZ SERV . BRACCAGNI;DARIEN S.A.S. DI GRECO SALVATORE;VIA ELENA LUCREZIA CORNARO EX VIA AURELIA VECCHIA 58 58100;42.87180751800218;11.0756504535675
54806;LEVANTE GROSSETO;LEVANTE GROSSETO;Via Ecuador  58100;42.7877655479323;11.11796770840855
46922;Luca Alcamo;ALCAMO LUCA;Via Pietro Mascagni 77 58100;42.75968978630193;11.122527770423744
43770;Mac Grosseto Nord;TORREGAS - S.R.L.;Località Rugginosa  58100;42.80102304802358;11.08415871717932
43771;Mac Grosseto Sud;TORREGAS - S.R.L.;Strada provinciale 158 58100;42.74982560496126;11.093877201223336
13526;MARINA CARBURANTI;MARINA CARBURANTI S.R.L.;VIA GROSSETANA, MARINA DI GROSSETO 60 58100;42.71877367773859;10.990595793254101
55968;NUOVA PESA SRL ;NUOVA PESA SRL ;SENESE 175 58100;42.77902;11.12476
47570;Q8;Q8;VIA CASTIGLIONESE 67 58100;42.771744000123;11.090228000123
36766;stazione di serviozio esso di giannini filippo;STAZIONE DI SERVIZIO ESSO DI GIANNINI FILIPPO;VIA DELLA PACE 129 58100;42.76909453219253;11.111423726983617
39017;STAZIONE DI SERVIZZIO DI GIANNINI FILIPPO;STAZIONE DI SERVIZZIO ESSO DI GIANNINI FILIPPO;VIA AURELIA NORD 56 58100;42.7715384979936;11.10641303865782
50225;Tirrenogas Grosseto;TIRRENO GAS DI TAVOLIERI ARNALDO E C. S.N.C.;AURELIA NORD 236 58100;42.78478740743983;11.092790365219116
15767;UNIONE GAS AUTO SPA - MY EN;MF SNC DI ANGELI M. & SINIBALDI F.;VIA SCANSANESE 309 58100;42.766042081863006;11.15630641579628
31928;Bancalà Emanuele distributore q8;BANCALA' EMANUELE;via umberto I 67 58012;42.35942388048221;10.92087613739966
52232;LOC MONTICELLO;LOC MONTICELLO;BANCALA EMANUELE DISTRIBUTORE Q8 67 58012;42.363811100454555;10.914606442626992
47275;Ala Carburanti;BRICOLOBI S.R.L.;Strada provinciale 160 amiatina km. 97,400  58051;42.5853492792878;11.286461353301997
18329;KALOROIL MANCIANO;KALOROIL MANCIANO;VIA PARIDE PASCUCCI SNC 58014;42.5924218264777;11.520582373584261
18330;KALOROIL SATURNIA;KALOROIL SATURNIA;VIA DELLE TERME 51, 58014  ;42.65511063947189;11.511208960499175
50661;MANCIANO;SYNERGY S.R.L.;Via Circumvallazione Nord  37 58014;42.58892177906998;11.517132428601773
9185;TAMOIL;TAMOIL;S.R. 74 km 11,770 - -;42.53497095179947;11.336098909378052
5946;MASSA MARITTIMA;"IP SERVICES S.R.L.";Via Circonvallazione 2 58024;43.05198735973446;10.887038597553214
21016;Stazione Rifornimento Esso;BARGELLI S. & C. S.N.C.;LOCALITA' SCHIANTAPETTO  58024;43.03318378123235;10.884260684251785
34220;04947;ALOCCI MARINA;strada provinciale orbetellana  58019;42.40547756998365;11.200216859579086
9633;Argentario Carburanti;ARGENTARIO CARBURANTI DI ROSI GABRIELE & C. S.A.S.;VIA CAMPONE ALTO SNC 58019;42.41849469090976;11.115725790085662
30836;Confessore Rino;CONFESSORE RINO;TERRA ROSSA SNC 58018;42.42557740544466;11.197828352451324
47219;ENI PV4904;ENI PV4904;PIAZZA DEL VALLE SNC 58019;42.43441563319328;11.12233256917444
4370;località Costa di Teva;ARGENTARIO TRADE S.R.L.;località  Costa di Teva S.P. 161 KM 8+700  58019;42.42980273153456;11.163234561681747
47647;PIERONI ANDREA;PIERONI ANDREA;VIA MOLO MARINAI D' ITALIA SC 58019;42.43543191061528;11.122724562883372
23662;reteitalia;reteitalia;piazza Mario Cheli   58025;43.14708983885971;10.856137810457994
15366;keropetrol;SOZZI ANDREA;LOCALITA' GABELLINO SNC 58026;43.07839327334394;11.015451550483704
54705;4956 Orbetello;4956 Orbetello;Loc. Fonteblanda – p.te Osa  ;42.54653;11.17565
16677;AGIP;VILARDI MICHELE;MARCONI  58015;42.440566502779824;11.214853674173355
50709;Beyfin Orbetello;E.G PUNTO SOSTA SAS DI GIUGGIOLI EMILIANO & C.;Loc.LA POLVEROSA, STR.REG. 74 KM 7 58015;42.52134937220107;11.28011687935539
16600;ENERPETROLI ;SASSETTI FABRIZIO;VIA MONTIANESE 24 58015;42.56575347622328;11.171282610838716
34157;ENI OSA;STAZIONE DI SERVIZIO DI RINALDI MARIO;Statale 1 Via Aurelia, Km. 156, dir. sud - 58015;42.546599156869064;11.175689399242401
45508;IP Orbetello Scalo;BENICCHI CESARE;1 Via Aurelia, Km. 144,400, nord - 58015;42.45924539434173;11.247215867042542
32998;ORBETELLO - FONTEBLANDA;"IP SERVICES S.R.L.";VIA AURELIA KM. 159,830  58010;42.57883700485404;11.164709212303137
23997;ORBETELLO - FONTEBLANDA;STAR SERVICE S.R.L.;Statale 1 Via Aurelia, Km. 159+200, dir. GROSSETO - ;42.57387227493479;11.167409420013428
27264;ORBETELLO OIL ITALIA;OIL ITALIA SRL;STRADA PROVINCIALE N.7 BARCA DEI GRAZI  SNC 58100;42.51354230288021;11.242410304087116
52781;ORBETELLO SS AURELIA,244 KM 152+090 ALBINIA;ORBETELLO SS AURELIA,244 KM 152+090 ALBINIA;1 KM 152+095 SNC 58015;42.5153623;11.1944954
34023;Panta Talamone;CI.ERRE. NAUTICA S.R.L.S.;Piazza del Porto 1 58015;42.55428534969903;11.135302037000656
25576;Stazione di Servizio ESSO di Vanni C & Segato M snc;VANNI CESARE E SEGATO MARCO S.N.C.;PIAZZA MARIO CORTESINI 35, 58015 - -;42.43948929829656;11.213878020644188
12621;Stazione di servizio PANTA s.r.l.;Stazione di servizio PANTA s.r.l.;strada Provinciale 440 km 2+272  58015;42.44374758190295;11.229059336376167
40123;totalerg;MAGAROTTO ANDREA;Statale 1 Via Aurelia, Km. 150+200, dir. roma - 58015;42.50040260140667;11.20401956140995
10347;giovanni dondolini;DONDOLINI GIOVANNI;VIA N. CIACCI 513 58017;42.63655258278026;11.674544631056051
18332;KALOROIL PITIGLIANO;KALOROIL PITIGLIANO;STRADA REGIONALE MAREMMANA 74  55372 58017;42.647349692325456;11.707957434752302
29705;PITIGLIANO;PITIGLIANO;VIA NICOLA CIACCI 16 58017;42.634524659605155;11.671684831380844
20572;BOCCINI BRUNO;BOCCINI BRUNO;STRADA STATALE 323 SNC 58053;42.78301533779549;11.483602970838547
43537;8089;T.D.M. S.R.L.;MONTEMASSI 88 58036;42.970230062593714;11.03930111660236
12586;Distribuore Da Frassini;DA FRASSINI ANDREA;VIA ROMA 201/B 58036;43.02561114770337;11.090097427368164
27253;DISTRIBUTORE IP di BONCIOLI PAOLO E ANDREA;DISTRIBUTORE IP di BONCIOLI PAOLO E ANDREA;VIA MAZZINI 55 58036;43.013739161595076;11.166065633296967
43837;Geno Srl;GENO SRL;Loc. Il Terzo Snc 21 58036;43.00111967345741;11.171936996628574
21662;Staz. Servizio di Vecchiarelli Tito e Piero Snc;Staz. Servizio di Vecchiarelli Tito e Piero Snc;S.P. 19 DI MONTEMASSI  58036, ROCCASTRADA (GR) SNC 58036;42.92544663898517;11.08071858810581
39996;BALDUCCI SNC;BALDUCCI S.N.C. DI BALDUCCI ROBERTO & C.;VIA martiri di niccioleta 17 58037;42.83457021741693;11.584484818385363
32908;SCANSANO;STAR SERVICE S.R.L.;S.P. DELLE COLLACCHIE  58054;42.693509348474414;11.320925652980804
50660;SCANSANO;SYNERGY S.R.L.;S.P. Fronzina km 24- Loc. Baccinello snc 58054;42.78911016159195;11.36141799033821
51574;Andrea Raffaelli Soccorso Stradale;RAFFAELLI ANDREA;STRADA PROVINCIALE N.158 KM 10+970  snc 58020;42.85488593254055;10.806830999999981
15613;ESSO DI IMPARATO SALVATORE ;IMPARATO SALVATORE S.A.S.;Statale 1 Via Aurelia, Km. 224, dir. SUD - 58020;42.940209639380505;10.806766301393509
53300;f.lli carli andrea e claudio snc;F.LLI CARLI ANDREA E CLAUDIO S.N.C.;STATALE 322 KM 5+532 SNC 58020;42.89818592438348;10.784909725189209
50723;IP RAFFAELLI E SOCCORSO STRADALE H 24;PUNTO AUTOTRASPORTI S.A.S. DI RAFFAELLI F. & C.;S.P. N. 158 DELLE COLLACCHIE KM 10+970 SNC 58020;42.854894579875335;10.80684804287801
8718;La Castellina s.s.1;PITTALIS RAIMONDO FRANCESCO & C. S.N.C. DI PITTALIS RAIMONDO FRAN CESCO E PITTALIS GIOVANNA RITA;Statale 1 bis Via Aurelia, Km. 223, dir. Roma - 58020;42.95867210715349;10.816238522529602
7447;S.A.M. Scarlino;S.A.M. Scarlino;SP. 152 Aurelia Vecchia Km.48+300 Scarlino Scalo  58020;42.94351568016679;10.825131386518478
46006;KALOROIL CATABBIO;KALOROIL CATABBIO;LOCALITA' CASE RIGO SNC 58055;42.6997606397355;11.56418556322626
51386;6101;T.D.M. S.R.L.;DELLA REPUBBLICA S.N.C. 58010;42.66917357403328;11.7629446490738
25594;Area di rifornimento La Botte;Area di rifornimento La Botte;LOCALITA' MONTORIO SNC, 58010  58010;42.73135737392533;11.762920171022415
31345;Officina Gagliardi e C. Snc;OFFICINA GAGLIARDI E C. S.N.C. DI GAGLIARDI RICCARDO E COSTANZI F LORIANO;DEL PRETORIO 39/43 58010;42.65742241954757;11.647913912222407
29208;tamoil;CHECCHINI SONIA;PIAZZA DELLA REPUBBLICA 13/B 58010;42.669009377870836;11.762951804935142
46735;Manfredi Samuele snc;MANFREDI S.N.C. DI MANFREDI SAMUELE & C.;AURELIA 47 57020;43.27103381655962;10.542469914701996
45071;PV MARINA DI BIBBONA;ALA CARBURANTI S.R.L.;VIA LOC.MARINA DI BIBBONA VIA PROV.LE DEI MELOGRANI 11 57020, BIBBONA (LI) 11 57020;43.24720728482552;10.54064691066742
45597;ADS VENTURINA;CHECCHI CARBURANTI DI CHECCHI DANIELE & C. S.N.C.;1 Via Aurelia, Km. 245+10, ROMA - 57021;43.018311241961214;10.589698353075846
21153;CAMPIGLIA EST;CAMPIGLIA - S.R.L.;LOCALITA' AFFITTI  57021;43.00325798125213;10.6111179292202
51087;CAMPIGLIA MARITTIMA;SYNERGY S.R.L.;VIA CERRINI 142 57021;43.01710773902328;10.595207628355764
43937;CIBA DI CECCHINI FABIO E C. SNC;CIBA DI CECCHINI FABIO E C. SNC;AURELIA SUD 5/A 57021;43.02333341039866;10.608962774276733
31274;CONAD ETRUSCO S.R.L.;ETRUSCO S.R.L.;Via Dell'Agricoltura 41 57021;43.027692389953586;10.611718850279658
8081;EFFE & EFFE;EFFE & EFFE;Statale 1 Via Aurelia, Km. 243, dir. roma  57029;43.03100474981981;10.598696619272232
48680;EUROPAM S.R.L. - CAMPIGLIA MARITTIMA;EUROPAM S.R.L.;VIA INDIPENDENZA - FZ VENTURINA 269 57021;43.032426468212506;10.597026822090147
37896;PROGETTO GAS;PROGETTO GAS SRL;VIA DEI FALEGNAMI 36 57021;43.00619544099125;10.586963674566618
43334;PV CAMPIGLIA;ALA CARBURANTI S.R.L.;VIA VIA DI VENTURINA SC 57021, CAMPIGLIA MARITTIMA (LI) SNC 57021;43.05741853014303;10.614836046627033
46737;simone friani;simone friani;indipendenza  9 57021;43.02608298109543;10.604969801258108
38283;AREA DI SERVIZIO ENI;PISANI ALESSANDRO;PER PORTOFERRAIO 656 57034;42.75218616583377;10.23483082652092
50916;BEY0045;GAMBA E.M. W. & C. - SOCIETA' IN ACCOMANDITA SEMPLICE;LOC. MOLO PESCE SNC 57034;42.74339560761731;10.237943906745922
37918;DISTRIBUTORE ALZI - BEYFIN;PIZZOLANTE ANDREA;ALZI - VIA PROV. POMONTE SNC 57034;42.74320139989684;10.216800055048338
45349;DISTRIBUTORE BEYFIN LA PILA;PIZZOLANTE ANDREA;LA PILA SNC 57034;42.76620591050832;10.236551463603973
55497;capraia rifornimenti;capraia rifornimenti;via assunzione 75 57032;43.05153014111591;9.83688622713089
24056;Area Servizio Le Colonne;FOSSI FABIO & FOSSI FEDERIGO SNC;VIA AURELIA KM.257 665, 57022 - -;43.122023775499656;10.545439267079928
44724;BEYFIN;ALESSIO CARBURANTI DI SIGNORINI ALESSIO & C. S.A.S.;Strada Statale 329, Km. 2,015, dir. SUD  57022;43.168704236957836;10.585202425718307
46066;CASTAGNETO B.FUEL;B.FUEL CASTAGNETO;VIA UMBERTO I 43 57022;43.15993297230388;10.606832504272461
6564;CASTAGNETO CARDUCCI AURELIA SUD 241;SERVIZI & GESTIONI ITALIA srl;AURELIA SUD 241 57022;43.16204885944747;10.563358693254031
11620;CASTAGNETO CARDUCCI-FZ.DONORATICO VIA AURELIA;SERVIZI & GESTIONI ITALIA S.R.L.;FZ.DONORATICO VIA AURELIA S/N 57024;43.175630138856945;10.56704118847847
6851;CONAD;FORMENTERA S.R.L.;S.P.N.39 EX S.S. AURELIA  57022;43.173620288037725;10.56634247303009
6563; CECINA V.AURELIA KM.278+025- LOC. CEDRINO;SERVIZI & GESTIONI ITALIA srl;V.AURELIA KM.278+025- LOC. CEDRINO SNC 57023;43.29378364543625;10.526449978351593
42571;54101 Cecina;PV 54101 Cecina;via Variante Aurelia Km 273  57023;43.2897587750513;10.543888300507888
47633;ACI;ACI;VIA VIA AURELIA AL KM 280 + 739 SNC 57023, CECINA (LI) 1 57023;43.316225697502034;10.513486652028206
10108;Cecina;"IP SERVICES S.R.L.";Via Aurelia Nord  Loc. San Pietro in Palazzi  57023;43.32869349978992;10.503674000501633
32475;CECINA B.FUEL;B.FUEL CECINA;VIA DEL PARATINO 9/E 57023;43.30444181854402;10.54328411737447
11622;CECINA LI-SS.1 VARIANTE AURELIA LATO DESTRO;SERVIZI & GESTIONI ITALIA S.R.L.;SS.1 VARIANTE AURELIA LATO DESTRO S/N 57023;43.28980933258288;10.543288863754242
28139;Cecina Matteotti;"IP SERVICES S.R.L.";Corso Giacomo Matteotti 354 57023;43.299963336771995;10.523166954517365
11621;CECINA-LOC.PALAZZACCIO AURELIA 365/B;SERVIZI & GESTIONI ITALIA S.R.L.;LOC.PALAZZACCIO AURELIA 365/B 57023;43.30110019406791;10.522947013378143
55106;ENI;ENI;PISANA LIVORNESE KM 0,700 57023;43.333360891697644;10.50635153842566
36999;ENI;GALASSO ANGELO & VITINA S.N.C.;PISANA LIVORNESE KM. 0,700  57010;43.33313888647109;10.506343177101485
23421;ENI DI PIO LUCA E MARCO;ENI DI PIO LUCA E MARCO;VIA MONTANARA SNC 57023;43.31379625939881;10.52788496017456
11250;ESSO;CIGNI DALMAZIO E C. S.N.C.;CORSO MATTEOTTI 294/A 57023;43.30396760637648;10.52109816322934
55836;ESSO CECINA CORSO MATTEOTTI 294/F LOC. PALAZZACCIO;ESSO CECINA CORSO MATTEOTTI 294/F LOC. PALAZZACCIO;Corso Giacomo Matteotti 294/F  57023;43.3029911;10.5215975
7632;Esso CM;Esso CM;VIA AURELIA NORD 2 57023;43.31754593965860;10.513366162776930
33921;Gpl Elf;Gpl Elf;Via Montegrappa  128 57023;43.30654916243151;10.537227094173431
52895;SPAZIO CONAD CECINA;SPAZIO CONAD CECINA;VALDICECINA 70 INT 2 57023;43.3300;10.5243
14600;STAZIONE ENI CARBURANTE;VADI GIANCARLO S.N.C. DI VADI GIANCARLO E DI QUIRICO SONIA;VIA AURELIA NORD KM 281  57023;43.31972530812731;10.512302666902542
49184;ACI VICARELLO;ACI VICARELLO;VIA GALILEO GALILEI 84-86 57014;43.61128881253568;10.467393380205532
31492;COLLESALVETTI - S.S. 206;"IP SERVICES S.R.L.";S.S. 206 KM 33,585  57019;43.60386503941091;10.472151720237662
32823;COLLESALVETTI DIR FI;STAR SERVICE S.R.L.;SGC FI-PI-LI KM 70+650 DIR FI LOC.MORTAIOLO  57014;43.61193401512959;10.425317287445068
32994;COLLESALVETTI DIR LI;STAR SERVICE S.R.L.;SGC FI-PI-LI KM 69+449 DIR LI LOC.MORTAIOLO  57014;43.616771329127424;10.438979119062424
35303;COLLESALVETTI GRECCIANO;NEW GREEN FUEL S.R.L.;SGC FI-PI-LI KM 64+607  57014;43.622039307895356;10.49641728401184
55109;esso;esso;AURELIA 136 57014;43.558826;10.31565
30730;EURPETROLI SAS;EURPETROLI DI MAMELI SIMONE S.A.S.;AURELIA 15/D 57014;43.58938249203169;10.34693559192658
24020;F.LLI TRAVAGLINI SNC;TRAVAGLINI F.LLI S.N.C.;VIA PISANA LIVORNESE NORD 95 57019;43.63100266931269;10.457098131213343
54953;G.D. FUEL SRL;COLLESALVETTI DIR LIVORNO;SGC FI-PI-LI  DIR.LI.KM 69+449 SNC 57014;43.616664;10.439097
37729;Grecciano sud;EFFECI OIL & FOOD S.N.C. DI CARDINALI FLORISA E C.; SGR DIR FIRENZE SNC 57014;43.621273119812464;10.49623355269432
5671;lenzi claudio;lenzi claudio;VIA PISANA LIVORNESE KM. 31,400  57014;43.58426432219009;10.47235518693924
28890;MORRONE MONICA;MORRONE MONICA;VIA EUROPA 9/11/13 57014;43.60131539363137;10.472599512164265
10221;Stazione di metano di Collesalvetti;TIRRENOMET S.N.C. DI TAVOLIERI ARNALDO & C.;AIACCIA 74 57017;43.57953740372085;10.357101887544331
54483;STRADA REGIONALE 206 PISANA LIVORNESE CARBURANTI TOSCANA SERVIZI SRL ;STRADA REGIONALE 206 PISANA LIVORNESE CARBURANTI TOSCANA SERVIZI SRL ;ST.LE 206 PISANA LIVORNESE SNC 57014;43.5889;10.475
29898;1263;T.D.M. S.R.L.;PETRARCA ANG. V. FERRIGNI 150 57124;43.54382180048641;10.326396077871323
55655;53663 LIVORNO;ENI FUEL S.P.A.;Via dell'Ardenza  57128;43.51890;10.32399
29489;7077;T.D.M. S.R.L.;DELL'ARTIGIANATO 21 57121;43.56515048172131;10.341841578483582
51988;ACI ANTIGNANO;ACI ANTIGNANO;Viale del Littorale 277 57128;43.48748095568926;10.330607891082758
31724;ardenza;JOLLY WASH DI GALEAZZI UMBERTO;DELL'ARDENZA 134 57123;43.51890509361613;10.323986113071442
19599;Baroncini & Benvenuti snc;BARONCINI & BENVENUTI SNC DI BARONCINI STEFANO & BENVENUTI GRAZIA NA;viale petrarca 113 57100;43.543205252885;10.326592385319486
18237;CaLeLo;CA.LE.LO. S.R.L.;VIA FIRENZE 65 57121;43.574545210802604;10.33450573682785
18555;distributore esso grossi moreno e c. s.a.s;distributore esso grossi moreno e c. s.a.s;VIA FIRENZE 18 57121, LIVORNO (LI) 18 57121;43.56181645779501;10.326154346032695
6274;Distributore Mac di Papi G. & c. sas;Distributore Mac di Papi G. & c. sas;VIA CATTANEO CARLO 42 57128;43.53024935061863;10.318977952639784
46348;Edra Oil ;MARINARI DANIELE;LARGO BELLAVISTA 8 57126;43.54060046807032;10.301972632461684
46706;ENI BARONTINI LORENZO;ENI BARONTINI LORENZO;FIRENZE 36 57121;43.563054464867584;10.325593847195153
51940;Eni Station 05037;Eni Station 05037;PIAZZALE BARRIERA ROMA 82 57100;43.53258707922147;10.319235860118852
50568;ENI STATION DI VITIELLO VINCENZO;VITIELLO VINCENZO;viale petrarca 122 122 57124;43.54458891302396;10.326932100227259
50623;ESSO Ulivieri Luca;ESSO Ulivieri Luca;VIA DELL'ARDENZA KM. 312+626 80 57128, LIVORNO (LI) 80 57128;43.52749825356055;10.321580171585083
45684;EUROPAM - LIVORNO;EUROPAM S.R.L.;Via Mastacchi  317 57121;43.56321513277455;10.32969391534425
34221;Impianto di carburanti IP di Curzi simone;CURZI SIMONE;VIA DI MONTENERO 189 57128;43.49999170855866;10.342536270618439
41640;IP - MARCO GIUDICI;GIUDICI MARCO;VIA DI SALVIANO 459 57124;43.536806367210204;10.341872518385344
46335;IP DI ATTANASIO ANDREA;IP DI ATTANASIO ANDREA;VIA DELLE SORGENTI 470 57121;43.56934264607765;10.37855364382267
14979;ITALIANA PETROLI Terreni e Bucchioni S.n.C.;ITALIANA PETROLI Terreni e Bucchioni S.n.C.;VIA MACHIAVELLI NICCOLO' 61/B 57128;43.52526625749534;10.325154215097427
55229;ITALIANA PETROLI TERRENI E BUCCHIONI S.N.C.;ITALIANA PETROLI TERRENI E BUCCHIONI S.N.C.;VIA VIA DI SALVIANO 459 57121, LIVORNO (LI) 459 57124;43.52496609758994;10.324842334901927
4655;Livorno;NUOVA SIDAP  S.R.L.;VIA DI LEVANTE S.N.C. 57100;43.531763261253495;10.339660942554474
10101;LIVORNO;"IP SERVICES S.R.L.";Via Firenze   57121;43.56439928797997;10.325211882591248
27759;LIVORNO - ANTIGNANO;"IP SERVICES S.R.L.";ANTIGNANO - VIA VESPUCCI  57100;43.49383384268782;10.324164373016401
29281;LIVORNO - FIRENZE 10;"IP SERVICES S.R.L.";VIA FIRENZE 10 57100;43.56073585966929;10.326367813491856
31486;LIVORNO - LEONARDO DA VINCI;"IP SERVICES S.R.L.";VIA LEONARDO DA VINCI 10 57100;43.573909716112674;10.320124139881159
31142;Livorno Firenze;"IP SERVICES S.R.L.";via Firenze 87 57121;43.575603080656784;10.336010456085205
32487;LIVORNO V.LE BOCCACCIO 21;SERVIZI & GESTIONI ITALIA S.R.L.;V.LE BOCCACCIO  21 57100;43.535625338973816;10.323584710416071
23320;LIVORNO V.NTE SS.1 KM.4,3 LATO MARE;SERVIZI & GESTIONI ITALIA S.R.L.;V.NTE SS.1 KM.4,3 LATO MARE  57121;43.5505760998068;10.342302918434143
40640;LIVORNO VARIANTE AURELIA SS1 KM 317+472;SERVIZI & GESTIONI ITALIA S.R.L.;VARIANTE AURELIA SS1 KM 317+472  57121;43.567762184267494;10.347437777246114
23319;LIVORNO VARIANTE SS 1 KM 4+320 L.MONTE;SERVIZI & GESTIONI ITALIA S.R.L.;VARIANTE SS 1 KM 4+320 L.MONTE  57121;43.550915038102424;10.343284215869176
48872;LIVORNO VIA DEL LITTORALE 283;SERVIZI & GESTIONI ITALIA S.R.L.;VIA DEL LITTORALE 283 57128;43.48579748308487;10.331576051520539
6562;LIVORNO VIA FIRENZE 14;SERVIZI & GESTIONI ITALIA srl;VIA FIRENZE 14 57121;43.561304332513025;10.326135233044624
54573;LIVORNO VIALE FRANCESCO PETRARCA 176;LIVORNO VIALE FRANCESCO PETRARCA 176;Viale Francesco Petrarca 176  57124;43.5422037;10.3251897
37178;Mazzei Daniele;Mazzei Daniele;VIA VIA CINTA ESTERNA S.N. 57100, LIVORNO (LI) 52 57122;43.55519552140894;10.305282119907247
14464;nicola ricciuti;RICCIUTI NICOLA;VIALE NIEVO IPPOLITO 43/C 57122;43.55772393567285;10.326629140252294
41497;P.V. 5027;ULIVARI CESARE SAS DI ROSALBA CARLO & C.;VIA ENRICO CIALDINI  04 57123;43.54881383209623;10.304510565641408
25678;S.L.A.C. srl;S.L.A.C. srl;VIA FIRENZE 70 57121;43.56616199999995;10.323725294967646
37356;Saviozzi Paolo;SAVIOZZI PAOLO;Viale Boccaccio 10 57127;43.53688895849657;10.322479979762306
55198;SHELL LIVORNO VIALE PETRARCA, 113;PAD MULTIENERGY S.P.A;FRANCESCO PETRARCA 113 57124;43.5435348;10.3264902
4663;Società Combustibili Appalti Termici S.p.A.;SOCIETA' COMBUSTIBILI APPALTI TERMICI  S.P.A.;VIA DELLE CATERATTE 73 57122;43.57116565565136;10.316196978092194
52724;STAZIONE DI SERVIZIO ACI- AGIP SNC DI MASSIMILIANO FORTE E C.;STAZIONE DI SERVIZIO ACI- AGIP SNC DI MASSIMILIANO FORTE E C.;NIEVO IPPOLITO 126 57121;43.5454043;10.3162332
7585;Stazione di Servizio Barontini Marco;Stazione di Servizio Barontini Marco;VIA MARRADI GIOVANNI 152 57125;43.53933905580143;10.316677088638244
20684;Stazione di sevizio Scutti Claudio;SCUTTI CLAUDIO;VIA VIA MONDOLFI,154 ANTIGNANO S.N. 57100, LIVORNO (LI) 154 57128;43.509595233856054;10.32704047858715
37219;SV Carburanti;S.V. CARBURANTI DI GUIDETTI ROBERTO;viale nazario sauro  95 57127;43.531996610592266;10.318083576858044
48028;Tamoil- Carburanti Toscana Srl ;CARBURANTI TOSCANA S.R.L.;via L. Poet (Mc Donald's- Levante) 14 57124;43.532659317881574;10.3281569480896
20598;VIA FIRENZE;VIA FIRENZE;VIA FIRENZE 56 57121;43.56553335828056;10.32476450674585
54265;EDRA OIL - PROCCHIO;EDRA OIL - PROCCHIO;Via delle Ginestre 24 57030;42.785759897765104;10.244998628716244
6842;eni di murzi mauro;MURZI MAURO;viale cerboni n.36, 57033 - -;42.80439293065895;10.199421644210815
35447;1262;T.D.M. S.R.L.;CALAMANDREI SN 57025;42.92884840903516;10.520323812961578
49393;CIBA DI CECCHINI FABIO E C. SNC;CIBA DI CECCHINI FABIO E C. SNC;PIAZZA NICCOLINI 22 57025;42.924454967435246;10.53151500372687
10787;DE.CA PETROL SRL;Pompe Bianche ;VIA CAVALLEGGERI  ;42.936438327209345;10.50224170088768
36746;eni;PIACENTINI PAOLA & C SNC;UNITA' D'ITALIA 121 57025;42.943653746540605;10.537413932540858
44852;ENI SALIVOLI ;ENI SALIVOLI ;VIA  LUNGOMARE MARCONI  73 57025;42.936921000123;10.507448000123
46221;Italiana Petroli ;Italiana Petroli ;sp. 39 km. 234 Località Preselle  57025;42.950029361797164;10.700430124998093
7942;P.G.CIARDIELLO S.N.C;P.G.CIARDIELLO S.N.C;DELLA BASE GEODETICA 16 57025;42.96718213855647;10.548905432224274
47861;Piombino;NUOVA SIDAP  S.R.L.;Viale Dell'Unita' D'Italia  57025;42.94101056674619;10.535089373588562
27106;PIOMBINO - DELLA PACE;"IP SERVICES S.R.L.";Piombino Via della Pace  13 57025;42.937315709150944;10.524383906745925
6566;PIOMBINO PRINCIPESSA 17 LOC.FABBRICIANE;SERVIZI & GESTIONI ITALIA srl;VIA PRINCIPESSA LOC.FABBRICIANE 17 57020;42.97874169430303;10.531774163246155
6565;PIOMBINO STAZ.SERV.Q8 LUNGOM.MARCONI;SERVIZI & GESTIONI ITALIA srl;STAZ.SERV.Q8 LUNGOM.MARCONI SNC 57020;42.93412275498225;10.509274295631371
42221;q8 di MA.BE.snc di Pallecchi e Pratesi;q8 di MA.BE.snc di Pallecchi e Pratesi;q8 viale unita' italia 21 57025;42.9306226391679;10.526081845164299
4458;ristorante il diavolino;A & G. S.A.S. DI GALLI ALESSIO E GIANLUCA;loc. perelli 10 - -;42.96675339740917;10.62467918314519
26777;UNIONE GAS AUTO;LE FABBRICIANE DI SPATARO G.  & C.  SAS;VIA DELLA PRINCIPESSA 13 57025;42.98842106705455;10.533548399816937
7506;Bazar di Mola;BAZAR DI MOLA - F.LLI VAGO S.N.C.;via P.le Ovest 101-103 - Loc. Mola  57036;42.759140407673364;10.377576649188995
36831;beyfin;GAMBA E.M. W. & C. - SOCIETA' IN ACCOMANDITA SEMPLICE;Strada Provinciale Ovest 67 57036;42.76012781483875;10.369934365153313
50912;Livorno - Elba Porto Azzurro;Livorno - Elba Porto Azzurro;BANCHINA IV NOVEMBRE SNC 57036;42.76457431102737;10.398384630680079
45944;3A BARONTINI;BARONTINI PETROLI DI BARONTINI ANNALISA & C. SAS;strada provinciale per marciana 28/A 57037;42.798830205830626;10.304273289071716
19792;aci-agip;COLLINI FABRIZIO;VIA R.MANGANARO 5 57030;42.813810838303674;10.317442579487874
47907;CONAD SUPERMERCATI PORTOFERRAIO;SUPERMERCATI ISOLA D'ELBA SRL;Via Cementeria 15 57037;42.811481498607726;10.314920341104509
52994;EDRA OIL - CARPANI;EDRA OIL - CARPANI;Via Colonnello Marco Antonio Carpani 42 57037;42.804973657638406;10.306880761901862
40591;ENI PORTOFERRAIO;PISANI ALESSANDRO;VIA CARPANI 90 57037;42.803400522243685;10.306644961237907
37804;Impianto Beyfin ;MANCUSI MIRCO;VIA MICHELANGELO 23 57038;42.85897395772876;10.422502433531122
42833;Beyfin Bazar La Ginestra;BAZAR LA GINESTRA DI MELANI IVAN & C. SNC;strada provinciale per Porto Azzurro  57039;42.808503128915156;10.400998387731534
49917;5054 – Rosignano Marittimo;ENI FUEL S.P.A.;Via Aurelia Fraz. Rosignan Solvay  57026;43.39609989344248;10.431612153442366
10220;Distributore di Rosignano;Distributore di Rosignano;LE MORELLINE  57013;43.38605401182636;10.469348967189944
50862;Eni Le Spianate;Eni di Caleca Vito;1 bis Via Aurelia, Km. 296,6, Livorno  57016;43.42320759404088;10.416671780942474
50264;ENI STATION CM;ENI STATION  CM;STRADA STATALE 206 LOC ACQUABONA KM 11 + 250 SNC 57016;43.41609973923278;10.483194401539118
3842;FINE EST;FINE EST;Autostrada A12 LIVORNO-CIVITAVECCHIA,  Km. 200.325, dir. Nord - ;43.42540681214629;10.490012168884277
46742;IP;IP;VIA VIA DEI LAVORATORI 26 57016, ROSIGNANO MARITTIMO (LI) 26 57016;43.40398896498023;10.470736473798752
33265;Kerotris - Rosignano;"KEROTRIS - SOCIETA' A RESPONSABILITA' LIMITATA";LOCALITA' CAFAGGIOLO - S.S.206 SNC 57016;43.47776996826883;10.46746551990509
31087;ROSIGNANO M.MO - ROSIGNANO SOLVAY;"IP SERVICES S.R.L.";VIA SALVATORE ALLENDE  57026;43.396848723181854;10.435729504299161
31083;ROSIGNANO M.MO- CAMPOLECCIANO;"IP SERVICES S.R.L.";VIA AURELIA KM.299+700 - CAMPOLECCI  57010;43.44384352501052;10.383216093254077
3607;SAVALANO OVEST;SAVALANO OVEST;Autostrada A12 LIVORNO-CIVITAVECCHIA,  Km. 195.075, dir. Sud 57016;43.4591041950259;10.492377877235413
45728;SHELL ROSIGNANO MARITTIMO - V. AURELIA;ESSO ROSIGNANO MARITTIMO - V. AURELIA;Via Aurelia 360 57013;43.39760126327708;10.430068762726982
40797;Stazione Servizio Q8;VERGILI MICHELE;VIA AURELIA KM 288-270  57018;43.363238931232395;10.452699959278107
6335;tamoil 1261;BIESSE S.N.C. DI SCALIA ROBERTO & C.;via della repubblica - rosignano solvay 23 57016;43.39527102046786;10.447822373016379
53269;ZAGAGLIA SAS;ZAGAGLIA S.A.S. DI ZAGAGLIA LUCIANO & C.;DELLA CAVA 100 B 57016;43.397832000123;10.447132000123
21740;Distributore Metanocar;Distributore Metanocar;STRADA COMUNALE PER CAMPIGLIA SNC 57027;43.07962077121753;10.556581810711691
49187;ENI SAN VINCENZO;ENI SAN VINCENZO;1 Via Aurelia, Km. km 256+304, Livorno  57027;43.10656217136873;10.540973335533677
49121;esso;esso;1 Via Aurelia, Km. 256, livorno 18 57027;43.11104593600656;10.542757111162361
54223;IP 45505;IMPIANTO 45505;SS 1 AURELIA SNC 57027;43.0900932;10.552046
55546;SCAM DI MATTEO AIUTI E C DISTRIBUTORE CARBURANTE MARINA DI SAN VINCENZO;SCAM DI MATTEO AIUTI E C DISTRIBUTORE CARBURANTE MARINA DI SAN VINCENZO;FRATELLI MAGNANI SNC 57027;43.098500321097134;10.536710494842518
19378;TAMOIL;CELLI ANDREA;VIA AURELIA SUD 5 57027;43.09062276041784;10.544741302728653
14718;DISTRIBUTORE SASSETTA;CO. E CI. TRANS OIL SRL - I N   L I Q U I D A Z I O N E;VIA di Castagneto 18 57022, CASTAGNETO CARDUCCI (LI)  ;43.13126635534652;10.64503456912962
52992;Stazione di servizio;Stazione di servizio;ACQUARI SS 398 SNC 57028;43.07187479673691;10.674103271163972
14936;ALTOPASCIO;OIL SERVICE S.R.L.;VIA ROMANA EST 24 55011;43.82833822036752;10.645076036453247
31174;Altopascio Oils ;SANTACROCESE OILS S.R.L.;ROMA 1 55011;43.809188196676565;10.68233996629715
6569;ALTOPASCIO VIA EUROPA IMP. Q8;SERVIZI & GESTIONI ITALIA srl;VIA EUROPA IMP. Q8 SNC 55011;43.816039575300415;10.674583155819732
18835;AQUILA MARGINONE;AQUILA  MARGINONE;VIA MAMMIANESE SUD 29 55010;43.83625878344765;10.690735280513763
30803;CONAD ALTOPASCIO;CONAD ALTOPASCIO;VIA DELLE CERBAIE 49 55011;43.81900318263215;10.68719656242672
55827;IP altopascio;IP altopascio;ROMEA 94 55011;43.9166732;10.5322594
45931;LOC. SPIANATE - ALTOPASCIO;SERVIZI E GESTIONI ZENIT S.R.L. IN SIGLA - ZENIT S.R.L.;LOC. SPIANATE  55011;43.81012300076982;10.712167226659858
42963;stazione di servizio Eni Altopascio;CHECCHI CARBURANTI DI CHECCHI DANIELE & C. S.N.C.;via della galeotta snc 55011;43.809122591007885;10.691749614378182
9921;Stazione di servizio Esso "PETROLSERVICE";PETROL SERVICE DI SICILIANO OMAR & C. S.A.S.;Viale Europa 29/31 55011;43.81632772766908;10.67749212579497
5027;Torregas Srl - Marginone;TORREGAS - S.R.L.;LOCALITA' PONTE ALLA CILIEGIA 14 55011;43.83503872614666;10.708504915237427
5033;Torregas Srl - Riatri;TORREGAS - S.R.L.;VIA COMUNALE DELLA SIBOLLA SNC 55011;43.814290838001725;10.694777369499207
10666;papi sergio;PAPI SERGIO;via roma 65 c 65022;44.004710585676584;10.583933740854263
28959;San Carlo Ponte Maggio;San Carlo Ponte Maggio;12 dell'Abetone e del Brennero, Km. 62, Abetone  55022;44.04323034650533;10.683262646198273
44928;5106;B.& C. DI BERNARDINI SERENA E CIANELLI GIANLUCA S.N.C.;VIA DELLA REPUBBLICA 52 55051;44.045831000123;10.478767000123
13989;BENASSI MARIANGELA - DISTRIBUTORE 4 PETROLI;BENASSI MARIANGELA;VIA SR445 PONTE ALL'ANIA, - -;44.04289137902435;10.482128804041395
46743;IL CIOCCO ;IL CIOCCO S.P.A.;LOCALITA' IL CIOCCO-FRAZ. CASTELVECCHIO P. SNC 55051;44.0903939060389;10.466131276999477
46844;VIA ROMA, 12 - BARGA;SERVIZI E GESTIONI ZENIT S.R.L. IN SIGLA - ZENIT S.R.L.;VIA ROMA 12 55051;44.075211849801285;10.481336033695243
42214;2559;T.D.M. S.R.L.;PROVINCIALE LUDOVICA SNC 55023;43.95544396785351;10.502301728836073
10755;b&c snc;B.& C. DI BERNARDINI SERENA E CIANELLI GIANLUCA S.N.C.;Statale 12 dell'Abetone e del Brennero, Km. 42, dir. abetone - -;43.99849667160124;10.558175146579742
9785;Nuova carburanti;NUOVA CARBURANTI DI PIOLI SANDRO;VIA I MAGGIO SNC 55023;43.97639628308016;10.542218685150146
21538;stazione servizio q8 derni d&f;stazione servizio q8 derni d&f;VIA SALVATORE QUASIMODO 34, 55023  55023;43.96120095909183;10.507985891401631
11635;CAMAIORE LU-PIAZZA ROMBONI;SERVIZI & GESTIONI ITALIA S.R.L.;PIAZZA ROMBONI S/N 55041;43.93621924304203;10.307895927140635
37763;CAMAIORE VIALE ITALICO;SERVIZI & GESTIONI ITALIA S.R.L.;VIALE ITALICO  55041;43.916971317535484;10.255365053372998
47263;Distributore IP di Della Latta Samuele;SAMUELE DELLA LATTA;VIA ITALICA 138 55041;43.90563868983226;10.23632874232787
51369;GRIMALDI 4 petroli;DI PALO BURRONE MARIA;via provinciale per camaiore 98 55064;43.89887203263619;10.39527733632181
51370;GRIMALDI 4 petroli;DI PALO BURRONE MARIA;via provinciale per camaiore 98 55064;43.89887203263619;10.39527733632181
26618;IP Giannelli Simone;IP Giannelli Simone;VIALE COLOMBO 410 55041;43.898724138840635;10.222388413811586
35276;Paoli carburanti;IP di Paoli Dante;via dello stadio  17 55041;43.939040438414764;10.299356058239937
47832;stazione di servizio api di vitali luca e e c snc vitali;STAZIONE DI SERVIZIO API DI VITALI LUCA  &  C. S.N.C.;1 Via Aurelia, Km. 361+750, massa - 55041;43.90774903884411;10.226374490980312
26750;stazione di servizio ip ;STAZIONE DI SERVIZIO API DI VITALI LUCA  &  C. S.N.C.;VIA AURELIA KM.361 122 55041;43.901022859880094;10.231273144418083
47201;Stazione di servizio IP di Mallegni Nicola;MALLEGNI NICOLA;via stadio 1 55041;43.93899664861448;10.300267891264303
55923;SUPERGAS;SUPERGAS;VIA PROVINCIALE EST  1012 55041;43.92395;10.32638
26642;TotalErg di Binelli Dario;BINELLI DARIO;ss439 km 3320 capezzano pianore  55041;43.93544912036996;10.253772959360845
42119;Estegas;ESTEGAS S.R.L.;V.G.Garibaldi snc 55031;44.16292879859148;10.329527554276865
41291;2150;T.D.M. S.R.L.;DELLE VILLE 200 55012;43.882328437402926;10.575876394512079
44768;2321;T.D.M. S.R.L.;EUROPA 402 55012;43.89324699445594;10.550791457672176
55657;beyfin;beyfin;Viale Europa 10  55012;43.8600494;10.5836250
28695;CAPANNORI;G.S.SERVICE S.R.L.;VIA CARLO PIAGGIA  55100;43.84000988636571;10.573068782687187
39686;CAPANNORI;CAPANNORI;PROVINCIALE MADONNINA 67 55012;43.83288118210731;10.556238966656565
30952;CAPANNORI - GRAGNANO FONTANA NUOVA;"IP SERVICES S.R.L.";VIA PESCIATINA 667 55010;43.86759033139874;10.636413411045055
45730;CAPANNORI FRAZ.SEGROMIGNO IN MONTE;SERVIZI & GESTIONI ITALIA S.R.L.;FRAZ.SEGROMIGNO IN MONTE  55018;43.87927873327254;10.596128954596338
40818;europam;europam;Statale 12 dell'Abetone e del Brennero, Km. 429, dir. lucca 26 55012;43.8884870589064;10.535272374933584
10279;l'aquilotto snc;L'AQUILOTTO - SOCIETA' IN NOME COLLETTIVO DI GALELLA F. & PAGLIAI M. ABBREVIABILE IN L'AQUILOTTO S.N.C. DI GALELLA F. & PAGLIAI M.;via del frizzone 4 55012;43.83738490368195;10.597618206993047
52091;LAMMARI;SOCIETA' PETROLIFERA TIRRENA - SO.PE.TI. - S.R.L.;EUROPA 140 55012;43.87611034065624;10.571112416975836
8500;MASINI;F.LLI MASINI S.R.L.;VIALE EUROPA 83 55013;43.87094216218684;10.574657099999968
18660;Meschi Totalerg;MESCHI E C. - S.N.C.;VIALE EUROPA 152 55013;43.877469135897606;10.570072084665298
31709;Q8;Q8;viale europa  346 55014;43.89266294812934;10.5560152977705
52160;Q8 LAPPATO;Q8 LAPPATO;VIA PESCIATINA 853 55012;43.883779704805676;10.647849230346386
13664;RICCHI S.N.C. DI AVENANTE GAIA E ALESSIO;RICCHI S.N.C. DI AVENANTE GAIA E ALESSIO;VIA PESCIATINA 145 55012;43.85692358061386;10.575025914720754
48927;T.C. OIL SAS;TC OIL DI TOMMASO CIERVO S.A.S.;S.P. 23 ROMANA KM 5+613  55012;43.83878286852174;10.584511703854561
46012;VIA LOMBARDA - CAPANNORI FRAZ. LAMMARI ;SERVIZI E GESTIONI ZENIT S.R.L. IN SIGLA - ZENIT S.R.L.;VIA LOMBARDA - FRAZ. LAMMARI  55013;43.87346493019983;10.557757392525673
46046;VIA TIGLIO - LOC.PIEVE DI COMPITO;SERVIZI E GESTIONI ZENIT S.R.L. IN SIGLA - ZENIT S.R.L.;VIA  DI TIGLIO 754 55012;43.78195352490891;10.59212327003479
11634;CASTELNUOVO DI GARFAGNANA-VIA NICOLA FABRIZI 64;SERVIZI & GESTIONI ITALIA S.R.L.;VIA NICOLA FABRIZI 64 55032;44.105038710953586;10.408546775579453
14757;CASTELNUOVO GARFAGNANA;SIRTAM S.R.L.;S.P.  F. AZZI  55032;44.106322569070734;10.407473891973495
54668;ENI Station Castelnuovo G.;ENI Station Castelnuovo G.;NICOLA FABRIZI 45/A 55032;44.10623627693607;10.409392839471439
46390;VIA ROMA - CASTELNUOVO DI GARFAGNANA;SERVIZI E GESTIONI ZENIT S.R.L. IN SIGLA - ZENIT S.R.L.;VIA ROMA 40 55032;44.11200080531083;10.4128312725544
7023;Maufer;Maufer;VIA NAZIONALE  55025;44.03328443341881;10.499871969223022
55926;SUPERGAS;SUPERGAS;VIA FERRIRE 4 55020;43.99900;10.43251
38133;BEYFIN;VIETINA CARBURANTI DI VIETINA LORENZO & C. S.A.S.;via G.B. VICO 140/b 55042;43.95730385725239;10.194953083992004
50157;ELP;ELP;via provinciale della marina 63 55042;43.96403841646855;10.17936658895493
50479;FORTE DEI MARMI;SIRTAM S.P.A.;VIA GB VICO LOC CARANNA  55042;43.96517889607383;10.186382127985638
11637;FORTE DEI MARMI-VIA G.B.VICO 96;SERVIZI & GESTIONI ITALIA S.R.L.;VIA G.B.VICO 96 55042;43.96094287118438;10.190657842922178
15317;stazione di servizio esso;VERONA GIANNI;VIA REPUBBLICA 2 55042;43.95081380028221;10.174940058551783
55550;CONAD SUPERSTORE GALLICANO;CONAD SUPERSTORE GALLICANO;DI FONDOVALLE SNC 55027;44.064386;10.441959
28630;GALLICANO;"IP SERVICES S.R.L.";Strada Provinciale Fondo Valle  55027;44.067933841266736;10.440678298473358
41795;Torregas Srl - Gallicano;TORREGAS - S.R.L.;VIA ROMA SNC 55027;44.049235610626944;10.45530840754509
29897;1272;T.D.M. S.R.L.;PESCIATINA KM 1+526 SNC 55100;43.85235091798223;10.539505630731583
48248;235129;FAST WASH DI SOHAIL NAEEM;VIALE MARCONI 395 55100;43.846024147568166;10.516265630722046
25949;4QUATTROPETROLI DI CERBINO GIUSEPPE S. MARIA A COLLE;CERBINO GIUSEPPE;VIA DI POGGIO 94 55100;43.84784595642544;10.445221960544586
15759;4QUATTROPETROLI DI CERBINO GIUSEPPE SAN CONCORDIO;CERBINO GIUSEPPE;VIALE SAN CONCORDIO 684 55100;43.832120142391254;10.49799076808813
16800;AVP;VANNUCCHI ANDREA;VIA SARZANESE 2479 55100;43.856520454736064;10.440171323803725
48244;CHECCHI CARBURANTI GUAMO;CHECCHI CARBURANTI DI CHECCHI DANIELE & C. S.N.C.;VIA NUOVA PER PISA SNC 55100;43.82002580921985;10.49166218650817
12468;CHECCHI ERINO & FIORELLA SNC;CHECCHI ERINO & FIORELLA - S.N.C.;VIALE SAN CONCORDIO, PONTETETTO 1275 55057;43.82694569786182;10.495958335810883
48371;CONAD SUPERMERCATI LUCCA;ZAGARA S.R.L.;Via Di Tiglio 345 55100;43.84191934553335;10.518859008598334
18452;Distributore carburanti Lucca;METANO ITALIA - S.R.L.;VIA SARZANESE  55100;43.8484634012013;10.466395318508148
54237;DISTRIBUTORE ESSO ACQUACALDA;ALA CARBURANTI S.R.L.;DELLE VILLE 1140/C 55100;43.85885;10.52422
48542;ENI ;E.PI.C. S.A.S. DI PIOLI SANDRO & C.;VIA PESCIATINA - S. VITO  406 55100;43.851505427427355;10.533587976686478
33408;Eni;Eni;VIA DEL BRENNERO 746 55100;43.857838027383046;10.513736307621002
53247;ESSO;TORRI TIZIANO;ROMANA 2800 55100;43.84207954151348;10.552702769637108
53245;ESSO;ESSO;Via Romana 2800 55100;43.842076;10.552666
45176;ESSO LUCCA - V. DI TIGLIO;PAD MULTIENERGY S.P.A;Via di Tiglio 1676 ;43.839032598995914;10.533826322448547
47218;ESSO LUCCA - V.LE CARDUCCI;PAD MULTIENERGY S.P.A;Viale Carducci 597 55100;43.8406869950486;10.494867385114897
34640;ESSO PAPESCHI GIUSEPPE;ESSO PAPESCHI GIUSEPPE;Statale 12 dell'Abetone e del Brennero, Km. 12, dir. ABETONE  55100;43.857320090112324;10.512678176164627
