ref:mise;name;operator;address;latitude;longitude
58882;EUROPAM - ANGHIARI;EUROPAM - ANGHIARI;PROVINCIALE DELLA LIBBIA 26 52031;43.5422842;12.0554613
34692;luca viviani;VIVIANI LUCA;VIA LIBBIA KM. 5 + 392 . 52031;43.550305303543844;12.079463079571724
44530;_LATO EST;AL.EN. CARBURANTI SNC DI F.BERGAMASCHI & M.DRAGHI;73 Senese Aretina, Km. 162, Est - ;43.47295419779255;12.055118083953857
44531;_Lato Ovest;AL.EN. CARBURANTI SNC DI F.BERGAMASCHI & M.DRAGHI;73 Senese Aretina, Km. 162, Ovest - ;43.47309434397329;12.054409980773926
5455;34601 BATTIFOLLE;ENI FUEL S.P.A.;Strada Statale 679 Loc. Battifolle Km 7 + 480  52100;43.43977299664931;11.783466004962975
51863;4656 – Arezzo;ENI FUEL S.P.A.;Via Vittorio Veneto, 165  52100;43.45533445156062;11.871353372859971
57084;4672;G.C. SERVICES SOCIETA' A RESPONSABILITA' LIMITATA SEMPLIFICATA;Via Romana 222  52100;42.81152174509788;12.65625
40021;52166;GESTIONI INNOVATIVE ITALIA S.R.L.;VIA C. COLOMBO 0 52100;43.455339702102975;11.867830082774162
58994;ARCHI;DULAJ ANIFE;GUIDO TARLATI 175 52100;43.46884036230259;11.891611218452454
46476;arezzo;CORO S.R.L.;VIALE SANTA MARGHERITA  52100;43.47328429700239;11.879178311045052
20673;Arezzo;"IP SERVICES S.R.L.";Via Marco Perennio 69/2 52100;43.46941422003049;11.87035471200943
24779;AREZZO - DAL BORRO;"IP SERVICES S.R.L.";VIA DAL BORRO  52100;43.46460389349198;11.868141574239758
30633;AREZZO - MARCO PERENNIO 44/E;"IP SERVICES S.R.L.";VIA MARCO PERENNIO 44/E 52100;43.46920794160213;11.872745541000313
32958;AREZZO - POLICIANO SR 71;"IP SERVICES S.R.L.";VIA POLICIANO SR 71  52020;43.38305321513474;11.86049807605741
56818;Arezzo - San Leo;BEYFIN S.P.A. SOCIETA' BENEFIT;S.S. 69 VALDARNO KM. 62 SNC 52100;43.47618058630879;11.83251784768219
5268;Arezzo - Setteponti;BEYFIN S.P.A. SOCIETA' BENEFIT;VIA SETTEPONTI 41 52100;43.47720905364789;11.868378938622982
50989;AREZZO BATTIFOLLE;SIRTAM S.P.A.;679 Arezzo-Battifolle, Km. 7+489, AREZZO - 52100;43.43926332673501;11.783396114301054
7610;AREZZO P.PERO;DRIVE SERVICE S.R.L.; SS73 KM 155+677 SNC 52100;43.42322344552082;11.976917535066605
50440;AREZZO PESCAIOLA;SIRTAM S.P.A.;S.P. 21 DI PESCAIOLA - LOC SAN GIULIANO  52100;43.456289523084585;11.808209513753004
28520;AREZZO SAN GIULIANO;STAR SERVICE S.R.L.;Statale 679 Arezzo-Battifolle, Km. 4+830, dir. AUTOSTRADA - 52100;43.45420086501424;11.808430552482605
50442;AREZZO SAN MARCO;SIRTAM S.P.A.;S.S.73 SENESE ARETINA  52100;43.44600013879962;11.866257832203226
35054;AREZZO STAZIONE;STAR SERVICE S.R.L.;Statale 679 Arezzo-Battifolle, Km. 5+728, dir. A1 - 52100;43.448409190476234;11.80069237947464
6593;AREZZO VIA DANTE - P.V. Q8;SERVIZI & GESTIONI ITALIA S.R.L.;VIA DANTE - P.V. Q8 SNC 52100;43.44885856272305;11.86065208650814
23558;AREZZO VIA FIORENTINA 228;SERVIZI & GESTIONI ITALIA S.R.L.;VIA FIORENTINA 228 52100;43.47169125089051;11.859490716146865
33824;Arezzo Via Tarlati;RETITALIA  S.P.A.;VIA TARLATI 0 52100;43.469112692344;11.889240145683289
11466;AREZZO-VIA BENEDETTO CROCE;SERVIZI & GESTIONI ITALIA S.R.L.;VIA BENEDETTO CROCE S/N 52100;43.46283438436462;11.848567128181458
11467;AREZZO-VIA BENEDETTO DA MAIANO;SERVIZI & GESTIONI ITALIA S.R.L.;VIA BENEDETTO DA MAIANO S/N 52100;43.453753269730676;11.88547317790983
11464;AREZZO-VIA ROMANA SS. 71;SERVIZI & GESTIONI ITALIA S.R.L.;VIA ROMANA SS. 71 S/N 52100;43.44515442276784;11.858509212303147
55586;BEYFIN;CHERICI SIMONE E GIANNOTTI ELENA & C. S.N.C.;Raccordo Autostradale km. 6+250 - Loc. Le Fosse  52100;43.44504;11.7965902
46815;BEYFIN ;CHERICI SIMONE E GIANNOTTI ELENA & C. S.N.C.;via Buonconte da Montefeltro 45 52100;43.47853646966633;11.886061591977068
54037;BEYFIN SAN LEO;BESI CARBURANTI DI LATIFAJ PAULO;S.S. 69 DEL VALDARNO KM 62 SNC 52100;43.47619770143751;11.832479690725874
59555;Distributore IP Ceciliano;SUPERCAR S.R.L.;SR 71 Umbro Casentinese Romagnola  52100;43.4877308;11.8754247
51650;ENI;PRATESI PAOLO; via fiorentina 63 52100;43.470589235567076;11.865305879710911
5333;ENICAFE;LAURENZI ERMANNO;Statale 71 Umbro Casentinese Romagnola, Km. 141, dir. PERUGIA - 52100;43.41671885331177;11.848218441009521
55806;ESSO ;TANI GIUSEPPE DI TANI D. & C. S.N.C.;ARETINA NORD 40 52100;43.41272;11.80237
43394;ESSO AREZZO - SITORNI;ESSO AREZZO - SITORNI;Via Umbro Casentinese - Fraz. Giovi - Loc. Sitorni  52100;43.510756653063474;11.8712063412376
55245;ESSO AREZZO SS 73 SENESA ARETINA KM141+462 LOC. SAN MARCO;ESSO AREZZO SS 73 SENESA ARETINA KM141+462 LOC. SAN MARCO;SS 73 KM 141+642 LOC. S.MARCO 0 52100;43.445717999999999;11.867008999999999
51496;ESSO STADIO;MARITATO GIANCARLO;SIMONE MARTINI SNC 52100;43.44928155996286;11.890844106674194
40312;EUROPAM - AREZZO;EUROPAM S.P.A.;LOCALITA' DOCCIA RONDINE  52100;43.5082160028992;11.785018891096115
53782;F.LLI MAZZI SRL;F.LLI MAZZI S.R.L.;VIALE MECENATE 81/A 52100;43.452021653026215;11.880088448524475
12155;F.LLI MAZZI SRL;F.LLI MAZZI S.R.L.;VIALE MECENATE 81/A 52100;43.452021653026215;11.880088448524475
23969;IMPIANTO ENI BARACCHI STEFANO;BARACCHI STEFANO;VIA SETTEPONTI 356 52100;43.49732733694601;11.829856038093567
10758;IP;IP;VIA GUIDO TARLATI 175 52100;43.468228345194284;11.890795826911926
55239;IP Rigutino;FATIMA S.R.L.;SAN JACOPO 294 52100;43.368869510504425;11.879181861877441
57243;myOil Arezzo;ROSSETTI FUEL SRL;Via Alessandro Fleming snc 52100;43.469478;11.85534
51651;paolo pratesi;PRATESI PAOLO;case nuove di ceciliano,16 16 52100;43.49197333409652;11.87521219253536
30217;PV 4684;GESTIONI INNOVATIVE ITALIA S.R.L.;VIA TURATI - LOC.PASCIONE SNC 52100;43.48021878079349;11.868757456541061
57277;RIGUTINO;OLYMPIA SERVICE S.R.L.;S.R. 71 KM 135+462 RIGUTINO S.C. 52100;43.36855714660135;11.879168825157178
45701;SHELL AREZZO - V. ANCONETANA;SHELL AREZZO - V. ANCONETANA;Via Anconetana 102 52100;43.45834181300573;11.901006514993828
55202;SHELL AREZZO VIA ROMANA LOC. SAN LAZZARO;SHELL AREZZO VIA ROMANA LOC. SAN LAZZARO;ROMANA LOC. S. LAZZARO SNC 52100;43.4448977;11.8580303
58150;Sp 71 Umbro Casentinese;EUROPEA SERVIZI SOCIETA' A RESPONSABILITA' LIMITATA;SR 71 Umbro Casentinese Romagnola Km150+900 52100;43.48699171602335;11.87570571899414
46342;STAZIONE DI SERVIZIO IP INDICATORE;MANCINI SASCIA;VIA CASSIA LOC. INDICATORE  SNC 52100;43.47097478191398;11.814084649085999
10357;Stazione di Servizio Tamoil;DANESI GIUSEPPE & INNOCENTI ELIO S.N.C.;Via Galileo Ferraris 7 52100;43.46775219780616;11.85098648071289
55930;SUPERGAS;SUPERGAS S.R.L.;VIALE SANTA MARGHERITA  52100;43.47551;11.87872
40087;GALLI ILVA;GALLI ILVA;VIA RICCI 34/A 52032;43.70403046928737;12.187297940254211
4214;AREA DI SERVIZIO LECHIANE;AREA DI SERVIZIO LE CHIANE DI LODDI DAVID E SPINOSO MICHELE & C. S.N.C.;VIA BUONCONTE DA MONTEFELTRO 9 52011;43.69424176833497;11.802805598384566
48970;BIBBIENA CARBURANTI;SILCA S.R.L.;VIA LOC. PALAZZETTO 0 52011, BIBBIENA (AR) SNC 52011;43.70187725169301;11.804056880538951
11468;BIBBIENA-LOC. PIANACCI 8 SS 71;SERVIZI & GESTIONI ITALIA S.R.L.;LOC. PIANACCI SS 71 8 52011;43.71788587052159;11.808961629867554
7089;C. & C. DISTRIBUZIONE CARBURANTI DI CECCONI E CORDOVANI SNC;C. & C. DISTRIBUZIONE CARBURANTI DI CECCONI E CORDOVANI S.N.C.;VIA NAZIONALE  52010;43.7309519611638;11.811676025390625
47427;ESSO BIBBIENA SS.71 Km 179+602;ESSO BIBBIENA SS.71 Km 179+602;SS.71 KM 179+602 BIBBIENA SCALO  51022;43.699080381431614;11.810535159027346
13757;zavagli snc di zavagli gianni e c.;ZAVAGLI S.N.C. DI ZAVAGLI GIANNI E C.;VIA UMBRO CASENTINESE  138 52011;43.698274173742604;11.810502483317237
38414;OILFIN s.r.l. - BUCINE;OILFIN S.R.L.;VIA PRIMO MAGGIO  134 52021;43.43570712821327;11.653240889549238
15936;ALFA CARBURANTI;AL.FA. CARBURANTI S.A.S. DI SCARTONI ENRICO;VIA DANTE ALIGHIERI 74/B 52010;43.565060370919866;11.862675763376615
57189;Distributore Ala;MONCINI PIERO;FOSSO DA BAGNO 38 52033;43.61371078406693;11.995335817337022
53095;6881;T.D.M. S.R.L.;UMBRO CASENTINESE SNC 52016;43.662831;11.840828
58884;PV 4614;GESTIONI INNOVATIVE ITALIA S.R.L.;S. S. 71 UMBRO CASENTINESE 0 52016;43.63974458786013;11.837681396362868
58536;STAZIONE ESSO DI CHELI MATTEO;CHELI MATTEO;Via Palmiro Togliatti 16  52018;43.745306399821004;11.710615511135115
21575;ANGELILLO F. & C. S.N.C.;ANGELILLO F. & C. S.N.C.;VIA FIORENTINA   52026;43.62324643041301;11.507076993584633
52640;Taddeucci auto snc;TADDEUCCI AUTO S.N.C. DI TADDEUCCI FRANCESCO E C.;ALCIDE DE GASPERI 47 52026;43.63886209463507;11.540301973107944
47373;Stazione di Servizio Esso;PETROL CAST S.R.L.;Via Setteponti, 1/R 1/R 52029;43.52241965074751;11.76792511213197
50448;CASTIGLION FIORENTINO;SIRTAM S.P.A.;VIA SERRISTORI  34 52043;43.34356569518536;11.907880281535173
6594;CASTIGLION FIORENTINO S.S.71 UMBRO CASENTINESE 159;SERVIZI & GESTIONI ITALIA S.R.L.;S.S.71 UMBRO CASENTINESE 159 52043;43.33381672231936;11.923259943723679
12226;F.LLI MILIGHETTI SNC;F.LLI MILIGHETTI S.N.C. DI MILIGHETTI MARINO E LIDO & C.;VIA ARETINA 117 52043;43.35040956219107;11.907621134918145
8336;STAZIONE DI SERVIZIO AGIP CAFE 4653 SNC;STAZIONE SERVIZIO AGIP CAFE' 4653 S.N.C. DI MARCHESINI E SOGGETTI;VIA UMBRO-CASENTINESE 120/122A 52043;43.34138828754621;11.91654771566391
24387;CAVRIGLIA;TIBER OIL S.R.L.;VIA EUROPA 1 52022;43.525341132299815;11.487569957971573
14440;mugnai marco ;MUGNAI MARCO;VIA G. CASINI 1 52022;43.54275925780419;11.451942846179008
46859;Stazione di servizio PGV di Baldi A. SAS;STAZIONE DI SERVIZIO PGV DI BALDI A. SAS;via delle miniere  fraz. Meleto  4 52022;43.56109337050119;11.464567256722603
58084;55385 CHIUSI DELLA VERNA;ENI FUEL S.P.A.;S.S.71 KM.176+460, LOC.CORSALONE  ;43.68121;11.829635
35354;AELLE SERVICE DI LAGARINI ALESSANDRO;AELLE SERVICE DI LAGARINI ALESSANDRO;VIA ROMA 47 52010;43.69728337125584;11.936736032366753
55530;M.P.;M.P.;ROMA 47 52010;43.693693833367796;11.938018798828125
53882;UZUNI IGLI;UZUNI IGLI;NAZIONALE S.N.C. 52010;43.681109360800356;11.829765425920481
3537;BADIA AL PINO EST;TICABI S.N.C. DI CANNONI VASCO & C.;Autostrada A1 MILANO-NAPOLI,  Km. 362, dir. nord 52041;43.40641196050068;11.763893933868417
3471;BADIA AL PINO OVEST;MATTESINI MATTEO & C. S.N.C.;Autostrada A1 MILANO-NAPOLI, Km. 362+300, dir. Sud - 52041;43.40652172181852;11.762473472213742
58391;CIVITELLA VAL DI CHIANA PIEVE AL TOPPO;SIRTAM S.P.A.;S.S.680 MONTE SAN SAVINO - SAN ZENO  52041;43.40211;11.79932
5998;MANNELLI GIUSEPPE SRL;MANNELLI GIUSEPPE SRL;Via dei Boschi 2 52041;43.40887494623825;11.768329011209113
50424;47152;CORO S.R.L.;LOC.SAN PIETRO A CEGLIOLO SS 71  52044;43.28780083784945;11.951943088954925
10048;AQUILA - CORTONA;AQUILA;Statale 71 Umbro Casentinese Romagnola, Km. 119+0,35, dir. SUD - 52044;43.255682964640336;11.980988457798958
5274;Arezzo - Camucia;BEYFIN S.P.A. SOCIETA' BENEFIT;STRADA PROVINCIALE DI MANZANO 1046 52044;43.250487123079374;11.95924311876297
25369;Beyfin;NAKO LEONARD;PIAZZA DEL MERCATO 1 52044;43.27320089506677;11.983482009578665
31600;CORTONA CENTOIA CARBURANTI;L'EDERA DI DOMINGO PIERONI;VIA C.A. CENTOIA 32 52044;43.189668596487046;11.932987948839013
25682;CORTONA SUD;SIRTAM S.P.A.;RA06 KM 14+080 52044;43.20322;11.9663636
7276;CORTONA-SS71 KM110 330 FR TERONTOLA;SERVIZI & GESTIONI ITALIA S.R.L.;FZ.TERONTOLA SS. 71 KM.110+330 SN 52040;43.18393095321763;12.013595402240753
31713;Esso Ricci-Miniati;RICCI - MINIATI DI RICCI BRUNO E C. S.N.C.;VIALE GIACOMO MATTEOTTI 138 52044;43.26573619400034;11.975146398811376
9991;ICM - Terontola;I.C.M. SOCIETA' IN NOME COLLETTIVO DI BRUNO, CRISTIANO E FABRIZIO MAGGI;Strada Statale 71 - Loc. Terontola  52044;43.19670191052097;12.013226598501205
50511;IVM;I V M SOCIETA' A RESPONSABILITA' LIMITATA SEMPLIFICATA;Via Ponti - Loc. Mercatale snc 52044;43.2539951510447;12.139502316713333
11222;L.C.DI LORENZONI EDI ;L.C. DI LORENZONI EDI & C. SNC;GIACOMO MATTEOTTI 144 52044;43.2666941571157;11.97494810185242
42803;OLIOCARBO;COPPINI AMERIGO;FRAZIONE COL DI MORRO 1 52044;43.312166995080595;12.100098907249048
31211;TM04675;PIT STOP LANE SNC DI DEBOLI M. NAPPINI G. E POMERANI R.;Statale 71 Umbro Casentinese Romagnola, Km. 116+512, dir. Arezzo - 52044;43.236734377092965;11.999130249023438
51285;8071;T.D.M. S.R.L.;S.S. 327 KM. 14+488 0 52045;43.283572905132075;11.826719793254096
47120;ESSO FOIANO DELLA CHIANA;ESSO FOIANO DELLA CHIANA;SP 327 DI FOIANO KM 20.900  52045;43.23119400977514;11.815719591103155
39662;OP Petroli FOIANO DELLA CHIANA;OLIVI S.P.A.;VIA DI AREZZO SP327 49/A/B 52045;43.258944180259284;11.81886836886406
54135;Piccini Fuels Foiano della Chiana;PICCINI PAOLO S.P.A.;SP 327 – Loc. Pialla - Via del Porto  snc 52045;43.24230512946541;11.827666341104516
34761;SIVOC;SOCIETA' ITALIANA VENDITA OLII CARBURANTI - S.I.V.O.C.- SOCIETA A RESPONSABILITA' LIMITATA;DELLE FARNIOLE 27 52045;43.22369387285156;11.8092580139637
27363;Tamoil 8071 carburanti lubrificanti;CORSI LUCA;STRADA STATALE 327 KM.14+488   52045;43.28356881401184;11.826705783605575
37440;LATERINA;SIRTAM S.P.A.;VIA PROV.LE VECCHIA ARETINA  52020;43.506203319752835;11.71310618519783
55308;ANDREINI VALERIO S.A.S DI ANDREINI FABIO E C.;ANDREINI VALERIO S.A.S DI ANDREINI FABIO E C.;DEL BAGNO 10 52019;43.475077177929;11.680872703041132
58989;RETITALIA DI CERRETI RYAN;CERRETI RYAN;VIA NAZIONALE  59 52020;43.480894090797776;11.71678622847714
54817;PE.BA. SNC DI BAZZECHI NICO & C:;PE.BA. SNC DI BAZZECHI NICO & C.;viale europa 27 52024;43.54866405959634;11.697657473550521
8674;STAZIONE SERVIZIO CIUFFENNA;STAZIONE SERVIZIO CIUFFENNA S.A.S. DI RIGHESCHI ANDREA & C.;VIA FILIPPO TURATI 32/B 52024;43.582951374873815;11.6237139914017
55929;SUPERGAS;SUPERGAS S.R.L.;VIA DE GASPERI  52024;43.58947;11.62875
34105;BE BOP;BE BOP DI MILO DI GORO;Via Prato 11 52046;43.2731266293087;11.743952259421349
57881;LUCIGNANO;SYNERGY S.R.L.;VIA DEL PRATO 11 52046;43.27259;11.74599
41500;LUCIGNANO EST;ENI FUEL S.P.A.;A1 MILANO-NAPOLI, Km. 381, Firenze - 52046;43.2801421;11.7664812
29384;LUCIGNANO OVEST;NUOVA SIDAP S.R.L.;Autostrada A1 MILANO-NAPOLI, Km. 381, dir. Roma - 52046;43.24564037100088;11.77470713853836
39028;PV MARCIANO DELLA CHIANA;ALA CARBURANTI S.R.L.;VIA PROVINCIALE DELLE CULLE SNC 52047, MARCIANO DELLA CHIANA (AR) SNC 51039;43.3228913806433;11.784680262207985
41003;tamoil 2304;CORSI LUCA;via castiglioni 26e 52047;43.31589087095692;11.809579208493233
52668;Angelo Malinconico;MALINCONICO ANGELO;Viale S. M. delle Vertighe 25 52048;43.3288091;11.7453422
44853;eni;CENTRO AUTO S.N.C. DI GARINI ARMANDO E C.;VIA ARETINA 45 52048;43.33668104341239;11.727797985076904
46233;ESSO MONTE SAN SAVINO;ESSO MONTE SAN SAVINO;Via Fiorentina 8 A 52048;43.33637711040649;11.726019729957017
55232;IP MONTE SAN SAVINO;LUNA ROSSA DI VALENTINI VALTER;LOC. LE VERTIGHE 623/A 52048;43.3284392;11.7563739
46511;PV ALBERORO;ALA CARBURANTI S.R.L.;VIA S.S. 327, LOC. ALBERORO SNC 52048, MONTE SAN SAVINO (AR) 39 52048;43.36939206166283;11.80817037820816
39827;6025;T.D.M. S.R.L.;S.S. 221 KM 1+594 - 52035;43.48855219366908;12.097101286053658
59088;53540 Montevarchi;ENI FUEL S.P.A.;S.S.69 KM.38+847, LOC.LEVANELLA  ;43.511;11.596
59453;ALA MONTEVARCHI;ALA CARBURANTI S.R.L.;SP408  52025;43.53027530421627;11.5597066317505
52309;ANNA D'AMBROSCA;D'AMBROSCA ANNA;VIALE DIAZ 168 52025;43.5287853982073;11.565663436487547
20832;ENI 53540;D'UVA DANIELE;VIA ARETINA 410 52025;43.51099466399102;11.596010327339172
58568;ESSO MONTEVARCHI S.P. PER TERRANUOVA;PAD MULTIENERGY S.P.A;PROV.LE DI TERRANUOVA SNC 52025;43.525400;11.564266
9443;IP VIA ENZO FERRARI MONTEVARCHI;PECORA MICHELE & C. S.N.C.;VIA ENZO FERRARI 10 52025;43.539095836841156;11.555559118771384
6203;La Vela di Fibbi;LA VELA DI FIBBI MARCO & C. S.N.C.;VIALE ARMANDO DIAZ 61 52025;43.5250963890605;11.569647618385261
10776;M.P di Meoni Roberto & C S.N.C;M.P. DI MEONI ROBERTO & C. S.N.C.;ARETINA 671 52025;43.50248183825745;11.613197922706604
21883;METANAUTO S.R.L.;METANAUTO S.R.L.;VIA AMMIRAGLIO BURZAGLI 233 52025;43.53983549367005;11.553700892065422
57762;myOil Montevarchi;ROSSETTI FUEL SRL;viale Armando Diaz  168 52015;43.528820;11.565629
57582;SHELL MONTEVARCHI S.S. 69 LOC. LEVANE;PAD MULTIENERGY S.P.A;ARETINA-LOC.LEVANE SS.69KM 471 52025;43.497382;11.620044
12479;stazione Eni 04627;DINI DANIELA;VIA A. BURZAGLI 169 52025;43.53213331401716;11.55969724059105
56010;SUPERGAS;SUPERGAS S.R.L.;Viale Cadorna 38 52025;43.53415;11.56080
53710;BONCOMPAGNI ANDREA;BONCOMPAGNI ANDREA;EUROPEA E45 125 KM 52036;43.662966614951905;12.047281265258789
12024;Esseci Carburanti;ESSECI CARBURANTI DI MARINI ENRICO;VIA TIBERINA 80 52036;43.67261999999998;12.039517110450788
51833;Eurocarburanti;RIOLO S.R.L.;3 bis Tiberina, Km. 150, direzione Roma - 52036;43.65843336914881;12.051442451775069
4906;AQUILA - PONTE A POPPI;OLIVERA E GAGGI S.N.C.;Statale 70 della Consuma, Km. 35+360, dir. Arezzo - 52014;43.7243039955687;11.77504382837653
58879;Aquila Drive - Badia Prataglia;AQUILA DRIVE S.R.L.;Piazza XIII Aprile  52010;43.79509225295957;11.876891571025071
7115;ENI - MONETI DANIELE & C. SAS;MONETI DANIELE & C. S.A.S.;VIA CIRCONVALLAZIONE 33/A 52015;43.78667794571238;11.722395144573284
3574;ARNO EST;NUOVA TOSCANA CARBURANTI DI MARCO BARSANTI & C. S.A.S.;Autostrada A1 MILANO-NAPOLI,  Km. 331, dir. nord 52027;43.58347433861366;11.52153342962265
20833;ENI 04634;D'UVA DANIELE;VIA PERUZZI 19 52027;43.568891799086785;11.526724085844421
26934;Esso Mami snc;MAMI S.N.C. DI VIETTI M. E DREASSI M.;VIALE RISORGIMENTO 3/A 52027;43.56438024138458;11.53563380241394
52611;Innosacc Q8;INNOSACC DI BIGI S., LAZZERINI L. & SACCHETTI L. S.N.C.;GRUCCIA KM32+800 52027;43.54808218068661;11.545009342758249
58934;IP;R.V.R. GAS SOCIETA' A RESPONSABILITA' LIMITATA SEMPLIFICATA;S.S. 69 KM 29,200 SNC 52027;43.57633273572063;11.525420621037483
11465;SAN GIOVANNI VALDARNO-VIALE RISORGIMENTO 4/A;SERVIZI & GESTIONI ITALIA S.R.L.;VIALE RISORGIMENTO 4/A 52027;43.5609101632698;11.537945866584778
19587;TOTAL ERG;C.V.R. GAS DI GIUNTI ROMANO & C. S.N.C.;Statale 69 di Val d'Arno, Km. 29,200, dir. NORD - 52027;43.57633273572063;11.525420621037483
54904;ADS Città del Palio della Balestra;PICCINI PAOLO S.P.A.;Strada Statale E45 Km 138,85 Nord dir. Cesena  52037;43.57631;12.11870
28605;ADS Città di Piero della Francesca;CI.PI.A. DI CESARI ANGELA & C. S.N.C.;FRAZIONE VANNOCCHIA 81/B 52037;43.57637101555412;12.11768925189972
25435;Cuku Mark;CUKU MARK;VIA TIBERINA SUD 76 52037;43.56667548662553;12.152062616613767
46913;ESSO SANSEPOLCRO;ESSO SANSEPOLCRO;Via Senese Aretina 301 52037;43.557011376256234;12.11082722686217
5732;Malatesta 156;D.F.D. DI FLAMINI VITTORIO & C. SAS;Via Malatesta km.156  52037;43.5739070598795;12.139329314231873
4027;PicciniFuels - Dir. Arezzo;PICCINI PAOLO S.P.A.;VIA SENESE ARETINA  102-104 52037;43.56646304755377;12.121032488299534
44864;PicciniFuels - Dir. Sansepolcro;PICCINI PAOLO S.P.A.;Via Senese Aretina  121 52037;43.56642377385617;12.121668271163912
26779;SANSEPOLCRO;TIBER S.R.L.;TIBERINA TRE BIS SUD 408 52037;43.56577645709385;12.154690235875023
35095;SANSEPOLCRO - SENESE ARETINA;"IP SERVICES S.R.L.";VIA SENESE ARETINA KM 180,973  52037;43.57102794935781;12.129297000259157
24042;TAMOIL;FRATELLI CRESTINI DI CRESTINI LEONARDO & C.S.N.C.;P.ZZA DEL MERCATO 10 52038;43.70719904118224;12.296020443688917
8260;ARCA SNC DI ARTINI E CACCIALUPI;ARCA S.N.C. DI CACCIALUPI SAURO;VIA VIA CINTA ESTERNA SR71 52010, SUBBIANO (AR) -224 52010;43.572313836152254;11.871165351867717
55922;SUPERGAS;SUPERGAS S.R.L.;Località Castelnuovo 69 52010;43.56038;11.85587
55916;Supergas ;SUPERGAS S.R.L.;VIa Verdi 74 52010;43.57759;11.87093
55925;SUPERGAS;SUPERGAS S.R.L.;PIAZZA DELLA LIBERTA  52010;43.60187;11.78897
33713;Agip - Eni;CARBURANTI VALDARNO SRL;VIA POGGILUPI 668 52028;43.54935694310108;11.563030741000375
50093;donato sas;DONATO SAS DI PIGNATARO DONATO & C;VIALE EUROPA 29 52028;43.54979987973479;11.58597323278212
55928;SUPERGAS;SUPERGAS S.R.L.;VIALE EUROPA  52028;43.54782;11.57905
53364;TERRANUOVA;SOCIETA' PETROLIFERA TIRRENA - SO.PE.TI. - S.R.L.;S.P. 59 KM1 + 640 SX S.N.C. 52028;43.550434721273646;11.594262788501396
30325;TERRANUOVA BRACCIOLINI - MOCARINI 735;"IP SERVICES S.R.L.";VIA PONTE MOCARINI 735 52028;43.54341555365068;11.570221457672119
49825;Aquila - Croce A Varliano;AM DI CAPPINI MIRKO E REGGI ALESSANDRO SNC;Via Roma 298/A 50012;43.74560469156124;11.338348708357183
40359;Bagno a Ripoli;"IP SERVICES S.R.L.";via di Rosano Loc. Vallina snc 50011;43.77883063826046;11.363694816827774
3486;CHIANTI EST;LA CONCHIGLIA DEL RAG. LUCA FOCARDI & C. S.A.S.;Autostrada A1 MILANO-NAPOLI, Km. 305+600, dir. Nord - 50011;43.73003797836093;11.332406880950884
39736;CHIANTI OVEST;CARLESI CARBURANTI S.A.S. DI BENEDETTA CARLESI;Autostrada A1 MILANO-NAPOLI, Km. 305.6, dir. sud - 50012;43.72921031635258;11.333670169115067
27035;ENI LEPRI PAOLO 2019 & C SAS;LEPRI PAOLO 2019 & C. S.A.S.;S.R.222 VIA CHIANTIGIANA KM 2  50012;43.73829325390573;11.291337059403457
46560;IP;D.A. DI DANIELE MANETTI & C. S.A.S.;VIA DELL'ANTELLA 72 50012;43.73023319478379;11.314776688814163
48080; ip mugello fuel station sas;MUGELLO FUEL STATION DI BUCCINO PASQUALE & C. SAS;via del lago  6 50031;43.99072872189402;11.230857790542625
58508;4840 BARBERINO DI MUGELLO;ENI FUEL S.P.A.;Viale A. Gramsci 25  50031;43.99671;11.239849
3687;AGLIO EST;AGLIO SERVICES - S.R.L.;Autostrada A1 MILANO-NAPOLI, Km. 255+800, dir. Nord - 50031;44.02957247403531;11.225896152114842
38452;CPM Barberino;IMPIANTI ITALIA S.R.L.;VIA LAGO LOC. CAVALINA  SN 50031;43.98921598481671;11.228010775463076
46064;ESSO BARBERINO DI MUGELLO - VIA MATTEOTTI;ESSO BARBERINO DI MUGELLO - VIA MATTEOTTI;V.le G. Matteotti 6/A 50031;43.992469952682434;11.238524188879346
48679;mugello fuel station ;MUGELLO FUEL STATION DI BUCCINO PASQUALE & C. SAS;VIA DEL LAGO 18 50031;43.980523650265496;11.220898658895502
57866;AQUILA ENERGIE;M.L. GROUP S.R.L.;VIA LEONARDO DA VINCI 148/150 50028;43.59188;11.19977
6253;F.LLI CIONI;F.LLI CIONI DI CIONI MAURIZIO E C. S.A.S.;LOCALITA' DROVE RACCORDO SS 429 SS 2  50028;43.48366392193896;11.14261507987976
17650;Gori Mattia;GORI MATTIA;Statale 2 Via Cassia, Km. 263 + 353, dir. nord 29 50028;43.54305629960399;11.172899525131243
47046;repsol ;TRE + S.A.S. DI ALESSIO DI LEONARDO & C.;NUOVO RACCORDO DI DROVE SS429 E SS2 50028;43.48538848356436;11.144870258662309
4902;Stazione Padim di Panti e Di Maggio ;PADIM DI PANTI FRANCESCO;Via Leonardo da Vinci 148  50028;43.5915134;11.1997541
7259;BARBERINO VAL D'ELSA-SS429 KM42 739;SERVIZI & GESTIONI ITALIA S.R.L.;LOC. TRE PIE' S.S.429 KM. 42+739  50021;43.49368722706796;11.120559275150299
54313;2P CARBURANTI;2P CARBURANTI S.R.L.;VIA VIALE GIOVANNI XXIII 22 50032, BORGO SAN LORENZO (FI) 22 50032;43.95465685414099;11.38332724571228
6586;BORGO SAN LORENZO VIALE PECORI GIRALDI 3;SERVIZI & GESTIONI ITALIA S.R.L.;VIALE PECORI GIRALDI 3 50032;43.955241315735115;11.39335431412087
54916;PIERI LUCA E C SAS 2;PIERI LUCA & C. S.A.S.;VIALE GIOVANNI XXIII, SNC  50032;43.95803936848097;11.368781479037455
17490;Pieri Mauro & C. Snc;PIERI LUCA & C. S.A.S.;Viale della Resistenza  50032;43.95716271502194;11.3740374147892
7755;TAMOIL;M.G.P. DI PERNICI MATTEO E GIARDULLO GIUSEPPE E C. SNC;VIALE GIOVANNI XXIII SNC 50032;43.95923366810547;11.365043967962265
48048;CALENZANO;SIRTAM S.P.A.;PROV.LE DI BARBERINO SNC 50041;43.940270027000196;11.215679830511096
11585;CALENZANO-VIA PUCCINI;SERVIZI & GESTIONI ITALIA S.R.L.;VIA PUCCINI S/N 50041;43.86186075891062;11.163649796295203
48719;Carrefour Calenzano;GS SPA;Via Dino Ciolli   145  50041;43.85390534508203;11.166667034087054
46224;DUE A snc;DUE A DI ARACHI ALESSANDRO E FINOTELLO RICCARDO S.N.C.;VIA DI PRATO SNC 50041;43.854321200453725;11.156579856714643
56827;ESSO - CALENZANO V. ALIGHIERI;ESSO - CALENZANO V. ALIGHIERI;DANTE ALIGHIERI 6 50041;43.854400;11.178900
42124;Ip;STAZIONE SERVIZIO ERG DI PAVELLINI EMANUELE;sp8  tangenziale ovest snc 50041;43.867390139064696;11.164736910748275
38885;stazione di servizio ENI 4739;FALUGIANI SIMONA;VIA VITTORIO EMANUELE SNC 50041;43.85025031847835;11.169591397047043
55672;Stazione Di Servizio Esso;OR RASHID HARUN;Via di Prato 24 50041;43.85658698939123;11.149255813598081
58715;34706  CAMPI BISENZIO;34706  CAMPI BISENZIO;VIA  CIRCONVALLAZIONE SUD  51/53  ;43.813988;11.123663
55576;AQUILA;GAROFALO ANTONINO;XIII MARTIRI 200 50013;43.8075392;11.1280128
36828;BISENZIO EST;VIVOCAFFE' S.A.S. DI DAMIANO GIUSEPPE E C.;Autostrada A1 MILANO-NAPOLI, Km. 280,400, dir. nord - 50013;43.83556936292389;11.160046798147619
7607;CAMPI BISENZIO;G.S.SERVICE S.R.L.; S.S. 325 BARBERINESE KM 84+450 SNC  50013;43.82447576688377;11.126102147607412
20671;CAMPI BISENZIO;"IP SERVICES S.R.L.";Via Allende  50013;43.841431271017996;11.15673691034317
6578;CAMPI BISENZIO "VIA F.LLI CERVI "I GIGLI";SERVIZI & GESTIONI ITALIA S.R.L.;VIA F.LLI CERVI "I GIGLI" SNC 50013;43.84947807594298;11.140778368053475
6587;CAMPI BISENZIO PRIMALDO PAOLIERI;SERVIZI & GESTIONI ITALIA S.R.L.;VIALE PRIMALDO PAOLIERI SNC 50013;43.823689871807524;11.146528781228653
22927;ENI Impianto 58313;BRINI CARLO & BETTARINI ROBERTO S.N.C.;Statale 325 di Val di Setta e Val di Bisenzio, Km. 220, dir. Signa - 50013;43.814116163532;11.119803026285808
5284;Firenze - Campi Bisenzio;BEYFIN S.P.A. SOCIETA' BENEFIT;VIA VINGONE (S.S. 66)   50013;43.80771866041542;11.102226376533508
16583;S.S. ESSO DI PETRI SNC;PETRI S.N.C. DI PETRI ALESSIO, ANDREA E LEONARDO;VIA S. ALLENDE SNC 50012;43.84141699991552;11.15587194794307
50437;CAPRAIA E LIMITE;SIRTAM S.P.A.;VIALE MONTAGNI  24 50050;43.739001500761994;10.971888369317
49723;EUROPAM - CAPRAIA E LIMITE;EUROPAM S.P.A.;VIA GRAMSCI snc 50056;43.74508846303215;10.985440399711905
43630;ADS CASTELFIORENTINO;ALA CARBURANTI S.R.L.;VIA Vittorio Niccoli 48 50051, CASTELFIORENTINO (FI) 48 50051;43.620038578473114;10.963422060012817
50456;Anass.mlaiki-carburanti.castelfiorentino;DISTRIBUTORE CARBURANTE ENI - CASTELFIORENTINO NORD DI  MLAIKI ANASS;VIA VITTORIO NICCOLI 2P 50051;43.615489349271755;10.96761120658357
46841;AQUILA;R.C.M. DI CAMBIONI ALESSIO & C. S.N.C.;VIA B. CIURINI 34/L 50051;43.58877087703086;10.989393889904022
36348;CASTELFIORENTINO;NEW GREEN FUEL S.R.L.;VIA MACHIAVELLI  50051;43.59301018103025;10.968951433897018
58120;IP;BAR PIU' DI GORDI FATMIR;DEI PROFETI SNC 50051;43.60071911309582;10.966490507125854
13544;metano toscana srl (castelfiorentino);METANO TOSCANA S.R.L.;VIA MONTEOLIVO SNC 50051;43.577681457187744;11.007978916168213
18567;self pingua;SELF PINGUA DI PECORINI FILIPPO & C.S.A.S;VIA SUL VINCIO 2C 50050;43.77869392224317;10.858638081020331
57918;CERTALDO;DRIVE SERVICE S.R.L.;VIA TOSCANA  50052;43.566873;11.018533
11582;CERTALDO-VIA ROMANA 125;SERVIZI & GESTIONI ITALIA S.R.L.;VIA ROMANA 125 50052;43.54089209214217;11.045004606151565
40092;ENI;C.M.D. DI CARUSO ELIO - MAJENZA ROBERTO E C. S.N.C.;VIA DELLE REGIONI 106/A 50052;43.56785089700938;11.024151965975761
40093;ESSO;C.M.D. DI CARUSO ELIO - MAJENZA ROBERTO E C. S.N.C.;VIALE GIACOMO MATTEOTTI 191 50052;43.556068858436525;11.032640512897501
52595;IP;SMILE SERVICE DI DI LEONARDO YURI & C. SNC;SR429 KM 47+328 ;43.52195;11.08126
11583;DICOMANO-VIA DELLA VITTORIA 21;SERVIZI & GESTIONI ITALIA S.R.L.;VIA DELLA VITTORIA 21 50062;43.88850586930252;11.525309970569651
46312;VIA PROVINCIALE 551 KM 20+900 - DICOMANO;SERVIZI E GESTIONI ZENIT S.R.L. IN SIGLA - ZENIT S.R.L.;VIA PROVINCIALE 551 KM 20+900  50062;43.90743762707499;11.506099265516468
46845;ADS EMPOLI;ALA CARBURANTI S.R.L.;VIA CHERUBINI 58 50053, EMPOLI (FI) 58 50053;43.71991590710714;10.96534252166748
51470;Area di Servizio Eni;MLAIKI ISMAIL;VIA LIVORNESE 232 50053;43.70190158459696;10.907800932069247
33119;EMPOLI - JACOPO CARRUCCI;"IP SERVICES S.R.L.";VIA  JACOPO CARRUCCI 234 50053;43.7208193847583;10.958960349702807
28142;EMPOLI - VIALE PETRARCA;C.N. SAS DI F. NANNETTI E C.;VIALE PETRARCA  35 50053;43.723131412470096;10.957078635692596
39113;EMPOLI VIA PROVINCIALE LUCCHESE;SERVIZI & GESTIONI ITALIA S.R.L.;VIA PROVINCIALE LUCCHESE  50053;43.72030147444904;10.916437804698944
11584;EMPOLI-PIAZZA SAN ROCCO 36;SERVIZI & GESTIONI ITALIA S.R.L.;PIAZZA SAN ROCCO 36 50053;43.719902740862324;10.938874694442802
11578;EMPOLI-SS. 67 KM.51+176;SERVIZI & GESTIONI ITALIA S.R.L.;SS. 67 KM.51+176 S/N 50053;43.72143956895499;10.967999999999961
50843;ENGO;STOC ENERGY S.R.L.;REGIONALE TOSCANA N.429 SNC 50053;43.687865998658864;10.911906477380494
26073;eni;FOSSI M. & BARILI F.SNC;TOSCO ROMAGNOLA SNC 50053;43.72067540842981;10.963448882102966
55489;Firenze - Empoli;BEYFIN S.P.A. SOCIETA' BENEFIT;PROV.LE LUCCHESE SNC 50053;43.72007876160463;10.91646002061693
40050;GAGGIOLI E CALONACI;F.LLI GAGGIOLI E CALONACI DI CALONACI GIANNI & C. S.N.C.;via val d'orme nuova 10 50053;43.691749794481744;10.961112678050995
20729;Marcignana;"IP SERVICES S.R.L.";Marcignana via prov. Lucchese  50053;43.72030709606452;10.893845558166504
22367;Metano Toscana srl - (Empoli - Via Vald'Elsa);METANO TOSCANA S.R.L.;Via Val D'Elsa snc 50053;43.7040084;10.8932547
13539;Metano Toscana srl - Empoli Via Piovola;METANO TOSCANA S.R.L.;VIA DELLA PIOVOLA 63-65-67 50053;43.7165955441996;10.968515574932098
30603;NGN NEWGASNETWORK;NEW GAS NETWORK DI MANDORLINI ELISA & FILIPPO - S.N.C.;VIA LUCCHESE 172 50053;43.720340644944734;10.898133013561278
57303;STAZIONE DI SERVIZIO D'ANGELO SAS 46576;STAZIONE DI SERVIZIO D'ANGELO DI CIRO D'ANGELO & C. SOCIETA' IN ACCOMANDITA SEMPLICE;LUIGI CHERUBINI 38 50053;43.71941770931569;10.964548587799072
54592;STAZIONE DI SERVIZIO D'ANGELO SAS 46581;STAZIONE DI SERVIZIO D'ANGELO DI CIRO D'ANGELO & C. SOCIETA' IN ACCOMANDITA SEMPLICE;LIVORNESE 148 50053;43.71538523026813;10.921229351335725
53115;STAZIONE DI SERVIZIO ESSO;BARZAGNA SAMUELE & C. S.N.C.;PETRARCA 1 50053;44.4814;11.0362
17850;BALLONI S.N.C. DI BALLONI ALBERTO & C.;BALLONI S.N.C. DI BALLONI ALBERTO & C.;Via Faentina - CALDINE 177/A 50014;43.83116691277085;11.307609476584275
57112;Eni Station 04793 di Massimiliano Galeotti;GALEOTTI MASSIMILIANO;FRANCESCO PETRARCA 189 50063;43.61202;11.48230
55976;ESSO FIGLINE VALDARNO VIA PETRARCA 75;ESSO FIGLINE VALDARNO VIA PETRARCA 75;PETRARCA 75 50063;43.6161922;11.477818900000001
25863;FIGLINE VAL D'ARNO;"IP SERVICES S.R.L.";VIA ROMA 106 50063;43.62470000000002;11.46645364418032
11580;FIGLINE VALDARNO FI-S.S. 69;SERVIZI & GESTIONI ITALIA S.R.L.;S.S. 69 S/N 50063;43.62658497566303;11.461803714233838
11581;FIGLINE VALDARNO-VIA TOTI 4;SERVIZI & GESTIONI ITALIA S.R.L.;VIA TOTI 4 50063;43.62509541591032;11.483554020524025
31009;M.A.B.E . Service Figline e incisa valdarno ;M.A.B.E SERVICE DI AGLIETTI MARCO E BARBIERI EMILIANO SNC;VIA FIORENTINA-LOC.LAGACCIONI S.N.C. 50063;43.63227665998316;11.458388864994049
13527;metano toscana srl(figline v.a);METANO TOSCANA S.R.L.;TRAVERSA SS 69 snc 50063;43.59758367857838;11.496106088161469
46172;SHELL INCISA VALDARNO - VIA ROMA;SHELL INCISA VALDARNO - VIA ROMA;Via Roma  50064;43.65401549456013;11.45083435775226
11591; FIRENZE - VIA DELLA NAVE DI BROZZI - ANGOLO VIA SAN DONNINO;SERVIZI & GESTIONI ITALIA S.R.L.;VIA DELLA NAVE DI BROZZI - ANGOLO VIA SAN DONNINO S/N 50145;43.78976134495156;11.164327561855316
45757;1165;T.D.M. S.R.L.;CAVE DI MONTERIPALDI SNC 50125;43.73827645164292;11.244944493254025
51872;14730 – Firenze Etruria;ENI FUEL S.P.A.;V.le Etruria, 40  50142;43.77365532304998;11.215048836374141
52399;2018 SAS DI ROBERTO SERAVELLI E C.;2018 S.A.S. DI SERAVELLI ROBERTO E C.;VIALE EUROPA  200 50126;43.756536941736;11.299966578434764
24667;2063;T.D.M. S.R.L.;SENESE - LOC.I ROSSI SNC 50124;43.74463374754643;11.22713572883606
5493;34710 FIRENZE;ENI FUEL S.P.A.;Lungarno De Nicola SNC 50136;43.7662243307795;11.298588901452831
29232;4099;T.D.M. S.R.L.;GUIDONI SNC 50127;43.79771642383509;11.221474707126617
42384;54205;GESTIONI INNOVATIVE ITALIA S.R.L.;CANOVA SNC 50142;43.780536756385;11.192737519741058
24794;54221 Firenze De Nicola;ENI FUEL S.P.A.;VIA ENRICO DE NICOLA 16 50136;43.76611164942626;11.301458179950714
26855;55923 Guidoni FI;ENI FUEL S.P.A.;VIALE ALESSANDRO GUIDONI SNC 50127;43.79787772020989;11.214415401154838
41915;8086;T.D.M. S.R.L.;DEL SANSOVINO SNC 50142;43.77508320448903;11.227165013551712
51387;Aleardi s.a.s;ALEARDI S.A.S. DI DEBORA PARILLI E C.;viale Aleardo Aleardi 45/47 50124;43.76927387381429;11.235237463788973
58567;Area di servizio Esso;TEX CARS DI LUCIA BASILE;BACCIO DA MONTELUPO 359 50142;43.76528;11.1814233
51085;AREA DI SERVIZIO FIRENZE;PETROL-FIN S.R.L.;via senese   ;43.74410829566967;11.226771289843782
6582;BAGNO A RIPOLI LOC. PONTE A EMA GOFFREDO DELLA TORRE;SERVIZI & GESTIONI ITALIA S.R.L.;GOFFREDO DELLA TORRE LOC. PONTE A EMA SNC 50126;43.74305002870873;11.288914812164307
14560;BEYFIN;PALAZZINI SERGIO;VIA REGINALDO GIULIANI  50141;43.820311715338356;11.222624033689499
49172;beyfin;G. & C. CARBURANTI DI TIBAUDO & COZZOLINO S.N.C.;VIA SENESE 186/A/2 50124;43.74564707292896;11.228195975352296
37866;BEYFIN;T.R.T DI FAINI ANDREA & C. SNC;VIA ROCCA TEDALDA 451 50136;43.76871030105542;11.316774710985555
54869;COSTANTINI FABIO;COSTANTINI FABIO;Via Sestese S.N. 50141, FIRENZE (FI) 185 50141;43.81994270161045;11.220960093740505
18157;DISTRIBUTORE IP;CHIACCHIERONI STEFANO;VIALE F. TALENTI 56 50142;43.77388183344993;11.216896139950563
16784;DISTRIBUTORE IP - via baracca 48p;F.LLI MENCHETTI SNC DI ALESSANDRO E NATALE MENCHETTI;VIA BARACCA 48P 50127;43.79032052943718;11.22289627790451
55851;DISTRIBUTORE IP - VIADOTTO DEL PONTE ALL'INDIANO ;F.LLI MENCHETTI SNC DI ALESSANDRO E NATALE MENCHETTI;Viadotto del Ponte all'Indiano  ;43.77498316625933;11.186431596511829
55790;DISTRIBUTORE IP VIA PISTOIESE 28;F.LLI MENCHETTI SNC DI ALESSANDRO E NATALE MENCHETTI;PISTOIESE 26 50145;43.79542093064771;11.199671873635872
16788;DISTRIBUTORE IP- via baracca 38m;F.LLI MENCHETTI SNC DI ALESSANDRO E NATALE MENCHETTI;VIA BARACCA 38m 50127;43.78901007774902;11.224363446235657
47442;EDRA ENERGIA - BORGHINI;EDRA ENERGIA S.R.L.;Via Borghini  50133;43.78918642132511;11.267257332801819
47441;EDRA ENERGIA - PELAGO;EDRA ENERGIA S.R.L.;Via Forlivese 3 50060;43.775752541793516;11.445022821426386
47443;EDRA ENERGIA - PUCCINI;EDRA ENERGIA S.R.L.;Piazza Puccini  50144;43.78614990300712;11.22868657112121
52373;ENI;DI.SA. S.N.C. DI SASSETTI ROBERTO & C.;PIAZZA L.B.ALBERTI, 1 5 50136;43.769785576477965;11.281087143171817
52368;ENI;AZIDUE SERVICE DI OMAR ES SABBAR;Via Bolognese 168 50100;43.806398742818324;11.274831542327872
10344;ENI 04812;BAROCCHI LUCA E MATTEO & C. S.N.C.;Via Del Romito 34 50134;43.78784839108384;11.245269120237708
51007;Eni 04891;BERTELLI PAOLA;BACCIO DA MONTELUPO 115 50142;43.769008304718206;11.196181441478886
43670;ENI DI OMAZI SERVICE SNC;OM.AZI SERVICE DI ES SABBAR ABDESSADEK;VIALE EDOMONDO DE AMICIS 4729 50100;43.774186179513116;11.286364376057463
45037;ENI PIAZZA PIER VETTORI;SBS DI SIMONE BRUNELLI & C. S.A.S.;piazza pier vettori 65 50144;43.771948231487606;11.232010845403693
46605;ENI STATION;ENI STATION;VIA BARACCA 114 50127;43.79152794740759;11.218919903039932
42828;esso;ERRECI DI PERUCCA RICCARDO E VANNI COSIMO S.N.C.;VIA REGINALDO GIULIANI 126 50141;43.80134045828712;11.2380058775625
52508;Esso;NEW ART DECO' DI PATRIZIA LEGITTIMO;VIA BACCIO DA MONTELUPO 359 50142;43.765348889002645;11.181387667493814
52290;ESSO;SINGH GURPREET;VIA FRANCESCO BARACCA 136/A 50127;43.7929069105935;11.214583989675656
45243;ESSO FIRENZE - P.ZZA DONATELLO;ESSO FIRENZE - P.ZZA DONATELLO;Piazza Donatello  50132;43.778213697210624;11.268246215938575
47007;ESSO FIRENZE - V. SENESE 2 STRADE;ESSO FIRENZE - V. SENESE 2 STRADE;Via Senese 2 Strade 199 50124;43.74881941421416;11.23417883757209
47122;ESSO FIRENZE - V. TORCICODA;ESSO FIRENZE - V. TORCICODA;Via Torcicoda  50142;43.775735475845536;11.217565420797879
47499;ESSO FIRENZE V.le Europa 203;ESSO FIRENZE V.le Europa 203;V.LE EUROPA 203  50122;43.75714368740046;11.298335546723518
56908;ESSO FIRENZE VIA ARETINA 267/H;ESSO FIRENZE VIA ARETINA 267/H;ARETINA - LOC. VARLUNGO 267/H 50136;43.768232699999999;11.2970142
51632;esso futura sas;FUTURA S.A.S DI BRAZZINI MATTEO E C.;via senese loc galluzzo Km 296,112 snc 50125;43.74511211776015;11.22759818781549
41840;EUROPAM - FIRENZE;EUROPAM S.P.A.;PIAZZA PUCCINI  50100;43.786164275776756;11.228267850940938
38214;F.lli Campigli snc distributore Eni 04732;F.LLI CAMPIGLI S.N.C. DI SIMONE CAMPIGLI E ALESSIO CAMPIGLI;Piazzale Donatello  50132;43.77745152737205;11.269018913801915
15532;Fibbi&Valacchi snc;FIBBI E VALACCHI S.N.C. DI FIBBI PAOLO & C.;VIA SENESE 150 50124;43.75025822578593;11.235971376299858
5527;FIRENZE;"IP SERVICES S.R.L.";Viale Pietro Nenni 16/1 50143;43.76593231492432;11.206875233135179
25344;FIRENZE - GIANNOTTI;"IP SERVICES S.R.L.";VIALE  GIANNOTTI  50126;43.75728934487764;11.287302682208974
34234;FIRENZE - REGINALDO GIULIANI 150;"IP SERVICES S.R.L.";VIA REGINALDO GIULIANI 150 50100;43.802717618523594;11.236761991798858
5628;Firenze - Viale Luder;BEYFIN S.P.A. SOCIETA' BENEFIT;VIALE GIOVANNI LUDER 41-42 50127;43.801268366030115;11.20362243558202
40878;Firenze - Viale XI Agosto;BEYFIN S.P.A. SOCIETA' BENEFIT;Viale XI Agosto 100 50127;43.80446578354315;11.215470822721272
22332;FIRENZE BACCIO DA MONTELUPO,170-172;SERVIZI & GESTIONI ITALIA S.R.L.;BACCIO DA MONTELUPO 170-172 50142;43.766731101888254;11.185656487941742
30414;FIRENZE SIMONE MARTINI;SIRTAM S.P.A.;VIA SIMONE MARTINI  50142;43.774432143989806;11.199470534920692
6588;FIRENZE TALENTI 112;SERVIZI & GESTIONI ITALIA S.R.L.;VIALE F. TALENTI 112 50142;43.773687320062294;11.215008881614722
55197;FIRENZE TALENTI ANG. VIA CIGOLI;SERVIZI & GESTIONI ITALIA S.R.L.;TALENTI ANG. VIA CIGOLI  50143;43.7729365;11.2137482
45078;Firenze V.le Guidoni;TORREGAS - S.R.L.;Viale Guidoni 222 57126;43.79937131775589;11.209431864671956
6591;FIRENZE VIA ARETINA 371;SERVIZI & GESTIONI ITALIA S.R.L.;VIA ARETINA 371 50136;43.76748218883609;11.304911703041057
41684;FIRENZE VIA BACCIO DA MONTELUPO N.18/P;SERVIZI & GESTIONI ITALIA S.R.L.;VIA BACCIO DA MONTELUPO 18/P 50142;43.77045041565588;11.208910446592313
22369;FIRENZE VIA CANOVA ANG.VIA FEDI;SERVIZI & GESTIONI ITALIA S.R.L.;VIA CANOVA ANG.VIA FEDI  50142;43.77729196505502;11.20542773306579
48844;FIRENZE VIA D'ANNUNZIO/ARCOLAIO;SERVIZI & GESTIONI ITALIA S.R.L.;VIA D'ANNUNZIO/ARCOLAIO  50135;43.775496921530944;11.290233181597333
9118;FIRENZE VIA DEI CATTANEI SNC;SERVIZI & GESTIONI ITALIA S.R.L.;VIA DEI CATTANEI SNC  50145;43.79650296459189;11.158780753612518
6584;FIRENZE VIA DI SCANDICCI 292-292/A;SERVIZI & GESTIONI ITALIA S.R.L.;VIA DI SCANDICCI 292-292/A 50143;43.760457411460905;11.205131315869153
37766;FIRENZE VIA PONTE ALLE MOSSE N. 154;SERVIZI & GESTIONI ITALIA S.R.L.;VIA PONTE ALLE MOSSE 154 50144;43.784318802532496;11.231749955819737
6589;FIRENZE VIA SENESE 207/A;SERVIZI & GESTIONI ITALIA S.R.L.;VIA SENESE 207/A 50125;43.7481949447391;11.232985282803384
6579;FIRENZE VIALE EUROPA;SERVIZI & GESTIONI ITALIA S.R.L.;VIALE EUROPA SNC 50126;43.75601480262551;11.304206044180319
6585;FIRENZE VIALE GUIDONI;SERVIZI & GESTIONI ITALIA S.R.L.;VIALE GUIDONI SNC 50127;43.797956039170856;11.213692458196988
14932;FIRENZE VIALE GUIDONI;OIL SERVICE S.R.L.;VIALE ALESSANDRO GUIDONI 207/209 50127;43.79899573852016;11.209166049957275
40639;FIRENZE VIALE GUIDONI/CARRAIA;SERVIZI & GESTIONI ITALIA S.R.L.;VIALE GUIDONI/CARRAIA  50127;43.79928778748094;11.208260449073805
58390;FIRENZE VIALE NENNI DIR SCANDICCI;SIRTAM S.P.A.;Viale Pietro Nenni  50100;43.76492;11.20246
11590;FIRENZE-VIA GIOVANNI AGNELLI;SERVIZI & GESTIONI ITALIA S.R.L.;VIA GIOVANNI AGNELLI S/N 50126;43.746975232809554;11.287371955680783
11587;FIRENZE-VIA MARAGLIANO 2;SERVIZI & GESTIONI ITALIA S.R.L.;VIA MARAGLIANO 2 50144;43.78435670519642;11.239780058860788
11589;FIRENZE-VIA PISANA 83/A;SERVIZI & GESTIONI ITALIA S.R.L.;VIA PISANA 83/A 50143;43.772192252750195;11.228280466270462
11588;FIRENZE-VIA SESTESE N 86;SERVIZI & GESTIONI ITALIA S.R.L.;VIA SESTESE 86 50141;43.81538257101056;11.226754051589978
39404;FUSI MARCO;FUSI MARCO;VIA CURZIO MALAPARTE 40 50145;43.79686267696318;11.158397868275642
52378;GAS STATION CASTELLO SAS;GAS STATION CASTELLO S.A.S. DI SERAVELLI CRISTINA & C.;VIA VIA SESTESE, 97/99 97 50100, FIRENZE (FI) 97/99 50141;43.81724405253075;11.223786664418029
9060;GIGLIO S.N.C. DI CECCHINI GIANLUCA E CECCHINI ROSSANA;GIGLIO S.N.C. DI CECCHINI GIANLUCA E CECCHINI ROSSANA;VIA BACCIO DA MONTELUPO ANGOLO VIA LUNGA SNC 50142;43.77065144001496;11.210137009620667
9352;ICM - Firenze;I.C.M. SOCIETA' IN NOME COLLETTIVO DI BRUNO, CRISTIANO E FABRIZIO MAGGI;VIA SENESE 184 50124;43.7461807639952;11.228799819946289
52472;Il Cerchio Motori Srl;IL CERCHIO MOTORI SRL;Via Pratese 93 50145;43.80052480157103;11.19148969650268
19230;Impianto ENI;CELLAI DANIELE & C. S.N.C.;DONATO GIANNOTTI 26/28 50126;43.76019842655871;11.28452219999997
48592;IMPIANTO ENI 4852;ALDERIGHI MAURIZIO S.N.C.;VIA DEL POLLAIOLO 150 50142;43.771376652615416;11.216186775463113
50787;IP;CALTABIANO FRANCESCO;Piazza Ferrucci  50126;43.76399775364684;11.270572543144226
16515;ip;DUE C SAS DI CENCINI FRANCESCO;viadotto dell indiano  50144;43.7750247155836;11.18645042181015
55781;IP Viale Etruria ;CHIACCHIERONI STEFANO;Viale Etruria 3 50142;43.771872730503745;11.232065749527386
53781;ITALIANA PETROLI;AUTOLAVAGGIO BRONZINO DI HOSSAIN JAMAL;VIA BRONZINO, 4 50142;43.773629;11.232538
41006;LA BOLOGNESE;LA BOLOGNESE S.N.C. DI CAVALLO ROSA E LO PRESTI FRANCESCO;VIA DI SCANDICCI SNC 50143;43.75704382085943;11.199213713407516
28102;lingui leonardo 59178;LINGUI LEONARDO;Viale U. Ojetti  50137;43.7828816;11.2936456
32714;M&Z snc di Marucelli Franca e Zanieri Jacopo;M & Z S.N.C. DI MARUCELLI FRANCA E ZANIERI JACOPO;VIA FAENTINA 380/A 50133;43.80047226922806;11.277049445438365
43543;MANNI ANDREA;MANNI ANDREA;ARETINA 224/A 50136;43.76744081089964;11.301922317790968
52423;newframar;NEW FRA-MAR DI DEGL'INNOCENTI FRANCESCO;via Bolognese  96 50139;43.79386566395113;11.261473894119257
55220;ovest bisenzio di fusi e c snc;OVEST BISENZIO DI FUSI E C. S.N.C.;SENESE SNC 50124;43.77;11.2601
29802;PATTINO SAS;PATTINO S.A.S. DI CORRADETTI MASSIMO & C.;VIA PISTOIESE 500 50145;43.7940835912895;11.156173499336205
53752;PERETOLA NORD;ENI FUEL S.P.A.;Autostrada A11 FIRENZE-PISA N., dir. Firenze ;43.819695;11.1731615
13623;PINI E SETTESOLDI SNC;PINI LEONARDO E SETTESOLDI IACOPO - SOCIETA' IN NOME COLLETTIVO ( IN FORMA ABBREVIATA PINI E SETTESOLDI - SNC);VIALE DEI MILLE 7 50131;43.78041060340574;11.279211394442768
56739;PV 039;GESTIONI INNOVATIVE ITALIA S.R.L.;Via Bronzino ang. Via Palazzo Diavoli  ;43.77272;11.22378
30222;PV 4740;GESTIONI INNOVATIVE ITALIA S.R.L.;VIA SENESE LO.GALLUZZO SNC 50124;43.73848661757374;11.224814057350159
24905;PV 4875;GESTIONI INNOVATIVE ITALIA S.R.L.;VIA SENESE- LOC. I ROSSI 194, 50124  ;43.74296572085396;11.225570440292358
9269;Q8 f.lli iacoviello;F.LLI IACOVIELLO S.N.C. DI ALESSANDRO E MARIO IACOVIELLO;VIA REGINALDO GIULIANI 556 50141;43.82086326001945;11.22130036354065
38216;Reginaldo Giuliani;"IP SERVICES S.R.L.";via Reginaldo Giuliani 96 50141;43.79991627292815;11.23872734606266
17817;riccardo carotti sas;RICCARDO CAROTTI S.A.S.;REGINALDO GIULIANI 49 50141;43.79911677847703;11.238952947885082
54539;SHELL - FIRENZE VIA BACCIO DA MONTELUPO 4 ANGOLO VIA LUNGA;SHELL - FIRENZE VIA BACCIO DA MONTELUPO 4 ANGOLO VIA LUNGA;BACCIO DA MONTELUPO SNC 50142;43.7706351;11.2109398
54933;SHELL - FIRENZE VIA REGINALDO GIULIANI, 126;SHELL - FIRENZE VIA REGINALDO GIULIANI, 126;REGINALDO GIULIANI 126 50141;43.801340000000003;11.237830000000001
42776;SHELL FIRENZE - V.LE EUROPA (ANG. VIA ALBANIA);SHELL FIRENZE - V.LE EUROPA (ANG. VIA ALBANIA);Viale Europa  50126;43.75661987751152;11.29338368646036
47001;SHELL FIRENZE - V.LE NENNI;SHELL FIRENZE - V.LE NENNI;Viale Nenni 39 50143;43.764292843659376;11.200690197829811
58432;SMAF 1062 - FIRENZE PUCCINI;SMAF SERVICES S.R.L.;Piazza Giacomo Puccini  50144;43.786673629698356;11.22691798619842
58433;SMAF 1063 - FIRENZE BORGHINI;SMAF SERVICES S.R.L.;Via Vincenzo Borghini  50133;43.789505673613164;11.268076374343886
19009;staz. di serv. Eni M.F snc di Vitellozzi;M.F. S.N.C. DI VITELLOZZI MATTEO & C.;via pistoiese 223 50145;43.79384977691213;11.187198758125305
35582;Stazione Carburante Ludoil s.p.a.;P&L S.N.C. DI PINI L. E PAPINI P.;VIA VIA LUNGO L'AFFRICO SNC 50137, FIRENZE (FI) SNC 50137;43.77480418140975;11.286990587388573
57502;STAZIONE DI SERVIZIO D'ANGELO SAS 46920;STAZIONE DI SERVIZIO D'ANGELO DI CIRO D'ANGELO & C. SOCIETA' IN ACCOMANDITA SEMPLICE;REGINALDO GIULIANI 244-B 50141;43.80858465717399;11.233909499577699
53766;Stazione IP di Corti Andrea;"AUTOFFICINA CORTI" DI CORTI ANDREA;LUIGI GORI 2/1 2/2 50127;43.795575988579934;11.206538826227188
56814;SUPERGAS;SUPERGAS S.R.L.;Piazza Alberti SNC 50136;43.76972;11.28112
11019;tamoil ;PASSARELLI LUCA & C. SAS;VIALE EUROPA 46 50126;43.75661573034039;11.2928504694504
42919;TIBER FIRENZE;TIBER S.R.L.;VIALE PAOLI 15 50137;43.77899563614063;11.282336711883545
29123;TOTALERG;TRE ES. DI SPINELLI DARIO & C. S.N.C.;VIALE ETRURIA 30 50142;43.77293007919961;11.199337813491866
28290;TotalErg;AUTOCARROZZERIA DUE T CAR LIFTING SERVICE DI TIZIANO TRALLORI;VIA RONDINELLA SNC 50135;43.77527697291198;11.292230039834976
16947;DUE ESSE SNC;DUE ESSE DI SCARPELLI STEFANO E SANDRO S.N.C.;VIA IMOLESE 35 50033;44.11850192072636;11.38371302841665
19266;S.I.M srl Pietramala;S.I.M. - SRL;PIETRAMALA 470 50033;44.16329230044633;11.331768482923508
34931;ADS FUCECCHIO;ALA CARBURANTI S.R.L.;VIA STRADA PROVINCIALE NUOVA FRANCESCA BIS SNC 50054, FUCECCHIO (FI) 7 50054;43.73815207963681;10.778999261376952
46455;AQUILA;2ESSE DI STABILE SABRINA;VIA PISTOIESE 5/A 50054;43.73688705040582;10.809774398803711
55334;B.FUEL FUCECCHIO;B.FUEL - S.R.L.;VIA CIRCONVALLAZIONE FRANCESCA BIS 10/P 50054;43.72248243242106;10.80780029296875
13728;ENI;GIUSTI S.A.S. DI GIUSTI ALESSANDRO E C.;VIALE BUOZZI 122/124 50054;43.73165055750501;10.802912685319484
5031;Eni - Fucecchio;MATRICARDI MANUELE & C. S.N.C.;STRADA PROV.LE ROMANA LUCCHESE 4, 50054  ;43.770539876620504;10.726293325424194
50435;FUCECCHIO;STAR SERVICE S.R.L.;VIA SAN MINIATESE - LOC SAN PIERINO  50054;43.70861066728562;10.821283465596743
6583;FUCECCHIO ROMANA LUCCHESE 330-GALLENO;SERVIZI & GESTIONI ITALIA S.R.L.;ROMANA LUCCHESE -GALLENO 330 50054;43.776800274869736;10.716819763183594
35444;MAC;NERI LUCA;VIA VIA  CESARE   BATTISTI 176 50054, FUCECCHIO (FI) 176 50054;43.72448071803517;10.821073204278946
50664;My Oil;KOCI LUCA;Via provinciale fiorentina 64 50054;43.7214461887574;10.799143407437555
19977;Quattropetroli;BANTI PAOLO;via Delle Cerbaie Massarella 53 50050;43.78862521582311;10.773982272578223
53660;IP;BAR PIU' DI GORDI FATMIR;VOLTERRANA SNC 50050;43.5449379;10.9568443
25218;MALORI FUELS & EXTRA;MALORI FUELS & EXTRA;VIA VIA MORANDI -  LOC. RICAVOLI 18/B 50050, GAMBASSI TERME (FI) 18/B 50050;43.582453911686194;10.965288877487183
57559;Fontana Paolo;FONTANA PAOLO;G. DA VERRAZZANO SNC 50022;43.5872765;11.3148146
54828;IP;AREA DI SERVIZIO CHIANTI SNC DI LORENZO LOTTINI E ANDREA ROSELLI;S.R.T. 222 CHIANTIGIANA KM.9+980 50022;43.7186;10.9425
46425;Italiana Petroli;PETROL B DI VIERI BALDANZI;SS 222 Chiantigiana  4 50022;43.59865492098936;11.314635769317192
32442;Poli Service snc;POLI SERVICE S.N.C. DI POLI EMANUELE E C.;S.R.T.222 CHIANTIGIANA KM9+980 SNC 50022;43.681824915271264;11.292668219574011
52254;Q8;MINIATI LORENZO;SR 222 Km 22,317  50022;43.60015932315713;11.312622874975204
54671;SHELL;GREVE SERVICE DI POLI SIMONE;SRT CHIANTIGIANA SNC 50022;43.58727552641908;11.314818179237363
58602;SHELL GREVE IN CHIANTI SS. 222 CHIANTIGIANA;PAD MULTIENERGY S.P.A;GIOVANNI DA VERRAZZANO SNC 50022;43.587264;11.314818
55927;SUPERGAS;SUPERGAS S.R.L.;PIAZZA DELLA FIERA  50022;43.67173;11.35445
40162;BARONI DIMITRI;BARONI DIMITRI;VIA IMPRUNETANA PER TAVARNUZZE 8B 50023;43.68860262186948;11.249727085232735
7226;m&m di maionchi;M & M DI MAIONCHI LAURA E MINCHIONI ALESSIO S.N.C.;VIA CASSIA 192 50023;43.7095928217255;11.215973839811682
58549;NISHAN;NISHAN SUPERSERVICE DI THEUWA HANDI NISHAN SANJEEWA;IMPRUNETANA PER TAVERNUZZE 8/B 50023;43.68880;11.24967
9947;CAR GOLD DI BANDINI DANIELE E GAGGILI STEFANO;CAR GOLD DI GAGGIOLI STEFANO & C. S.A.S.;VARIANTE STRADA PROV.N12 - -;43.70969678951952;11.06446087360382
4882;Delfini Carburanti - Lastra a Signa;ERCOLI S.R.L.;Via degli Scalpellini 1  50055;43.7707048;11.1226581
18434;impianto eni 04839 alderighi snc;ALDERIGHI MAURIZIO S.N.C.;Statale 67 Tosco Romagnola, Km. 65, dir. firenze - 50055;43.7695791833251;11.110860407352448
18433;impianto eni 04842 alderighi snc;ALDERIGHI MAURIZIO S.N.C.;Statale 67 Tosco Romagnola, Km. 67, dir. firenze -  50055;43.7743979894223;11.088401600718498
26637;Lastra a Signa - S.G.C. FI-PI-LI LOC. PIANACCI;SERVIZI & GESTIONI ITALIA S.R.L.;S.G.C. FI-PI-LI LOC. PIANACCI  50055;43.735667676319856;11.106273829936981
11579;LASTRA A SIGNA-SS. 67 KM. 69+689;SERVIZI & GESTIONI ITALIA S.R.L.;SS. 67 KM. 69+689 S/N 50055;43.76991477706214;11.116764780426024
46724;Metano Toscana GINESTRA F.NA;METANO TOSCANA S.R.L.;VIA VIA VAL DI PESA SNC 50055, LASTRA A SIGNA (FI) KM 13,75 50055;43.71499185870938;11.05290377546309
58474;PV 4839;GESTIONI INNOVATIVE ITALIA S.R.L.;LIVORNESE - SS 67 KM69 203 165 50055;43.7697328;11.110918
58504;PV 4842;GESTIONI INNOVATIVE ITALIA S.R.L.;SS. 67 -KM 77+178 - LOC. PONTE A SIGNA 455 50055;43.7743809;11.0883704
46819;SHELL - LASTRA A SIGNA;SHELL - LASTRA A SIGNA;Via Livornese 65 ;43.76959860238855;11.119470377023218
39034;7080;T.D.M. S.R.L.;S.S. 302 KM. 64+450 - 50034;44.085639122737184;11.626363545656204
11586;MONTAIONE-VIA MURA 45;SERVIZI & GESTIONI ITALIA S.R.L.;VIA MURA 45 50050;43.57480210156574;10.889474898576736
5658;PA.PETROL SNC;PA.PETROL S.N.C. DI MONICA PARRI & C.;LEONARDO DA VINCI 71 50050;43.54433717198904;10.927308797836304
26443;ENI;TOGNETTI LUCA;Statale 67 Tosco Romagnola, Km. 53+577mt., dir. EMPOLI - 50056;43.72751746500209;10.993224084377289
46048;ESSO MONTELUPO FIORENTINO;ESSO MONTELUPO FIORENTINO;Via Caverni 34 50056;43.7312871990499;11.018717015169935
15448;MONTELUPO FIORENTINO;T. A. OIL S.A.S DI TESTA ANGELO;VIA VIA DI BRAMASOLE 1 50056, MONTELUPO FIORENTINO (FI) 1 50056;43.713773633865834;11.042733639478683
24660;MONTELUPO FIORENTINO - SS TOSCO ROMAGNOLA;SERVIZI & GESTIONI ITALIA S.R.L.;Statale 67 Tosco Romagnola, Km. 55, dir. Empoli - 50056;43.727660519343374;11.020466685295105
47606;STAZIONE DI SERVIZIO D'ANGELO SAS 46575;STAZIONE DI SERVIZIO D'ANGELO DI CIRO D'ANGELO & C. SOCIETA' IN ACCOMANDITA SEMPLICE;RAFFAELLO CAVERNI 141 50056;43.72980170793105;11.017400845885277
46635;Gozzi Maico;GOZZI MAICO;VIA TADDEINI S.N. 50025, MONTESPERTOLI (FI) SNC 50025;43.64605;11.06513
59015;LUPI SRL;LUPI S.R.L.;Via Virginio 180 50025;43.6837075;11.0713938
19471;MONTAGNANA ;S.A.C. S.N.C. DI BENINCASI LEONARDO E C.;VIA VOLTERRANA NORD (DISTRIBUTORE)  50025;43.672338920315646;11.103678792715073
49397;Firenze - Palazzuolo sul Senio;BEYFIN S.P.A. SOCIETA' BENEFIT;PIAZZA RAGAZZINI SNC 50035;44.11387667078642;11.548999994993205
46768;Stazione di servizio IP di Nanni Barbara;NANNI BARBARA;Via Casentinese km 14,5 50060;43.7797336195341;11.594371108092218
54667;STAZIONE SERVIZIO IP CONSUMA;MA.KA.RI. S.A.S. DI GLOVI M. & C.;STRADA STATALE  70 KM 14,50 SNC 50060;43.779475909085846;11.594395637512207
4662;distibutore q8;P.B.S. DI BAGGIANI LEONARDO, SMORTI FABIO E CORTINI DANIELE S.N.C .;Statale 67 Tosco Romagnola, Km. 1+600, dir. firenze  50065;43.770983804704066;11.429502815008163
8179;ENI - PONTASSIEVE;PRIMERA S.R.L.;Variante SS67 Tosco-Romagnola Km 1,335  50065;43.771144175787164;11.426060199737549
45939;ENI OMAZI SERVICE;OM.AZI SERVICE DI ES SABBAR ABDESSADEK;via Aretina 64 50065;43.77611294972306;11.427404953372957
46789;ESSO PONTASSIEVE - LOC. LE SIECI;ESSO PONTASSIEVE - LOC. LE SIECI;Loc. Le Sieci - V. Aretina 29 ;43.78470120413844;11.401348239635135
13829;IP - PONTASSIEVE;PRIMERA S.R.L.;Viale Hanoi 1 50065;43.771477800890196;11.426837692590327
24330;AREA DI SERVIZIO eni BARTALUCCI STEFANO;BARTALUCCI STEFANO;VIA GRAMSCI  50066;43.68024485236639;11.531932353973389
53509;ARNO OVEST;ECAR - ETRUSCA CARBURANTI DI CARLO COPPA & C. S.A.S.;Autostrada A1 MILANO-NAPOLI,  Km. 321,5, dir. Napoli 50063;43.64946028543757;11.464040279388428
13575;BEYFIN;C.C.S. DI CANONICI GIOVANNI & C. S.N.C.;VIA RONA  50066;43.63296447210156;11.472883522510529
33174;IP pian di rona;PETROL GROUP S.R.L.;LOCALITA' RONA DI SOPRA 139/D 50066;43.642573605035345;11.466326862573624
38374;Paolo Pagliazzi;PAGLIAZZI PAOLO;Statale 69 di Val d'Arno, Km. 10+963, dir. Firenze - 50066;43.69936811160266;11.464557945728302
29475;REGGELLO;MARINO S.N.C. DI FERRINI SIMONE & C.;VIA DI MEARINO SNC 50066;43.67264816242499;11.526604145765305
49747;6098;T.D.M. S.R.L.;LOC. LA CHIOCCIOLA SNC 50067;43.70706894190441;11.399626941104488
30204;Mabe service Rignano ;M.A.B.E SERVICE DI AGLIETTI MARCO E BARBIERI EMILIANO SNC;LOC. PIAN DELL'ISOLA 33 50063;43.703994015690434;11.449559032917023
51693;4704 – Rufina;ENI FUEL S.P.A.;VIA DUCA DELLA VITTORIA, 10  50068;43.82605277651483;11.487259170602144
8000;carlo misuri;STAZIONE DI RIFORNIMENTO CARBURANTI DI MISURI C. S.N.C.;Statale 67 Tosco Romagnola, Km. 106+625, dir. firenze  50068;43.81896824720896;11.48401066660881
13833;Q8 - CONTEA;PRIMERA S.R.L.;Via Forlivese 1 50060;43.859237118984865;11.526679183697532
59007;4841 SAN CASCIANO IN VAL DI PESA;4841 SAN CASCIANO IN VAL DI PESA;VIALE  PASCOLI  SNC  ;43.65743;11.18787
52266;AQUILA;A&S PETROL S.N.C. DI ALESSIO CAMPIGLI E SIMONE CAMPIGLI;VIA VOLTERRANA  80/P 50026;43.68747233394747;11.136358881539739
13596;ENI;BELLINI FERDINANDO E COLI ANDREA - SOCIETA' IN NOME COLLETTIVO;VIALE G. PASCOLI SNC 50026;43.657274921248465;11.18776872754097
52253;Q8;MINIATI LORENZO;Via Grevigiana 86 50026;43.63688230783481;11.221677213907242
6920;Q8 - SAN CASCIANO;VA.MA. SNC DI BURRINI BARBARA E BURRINI MASSIMO;Via Giuseppe di Vittorio 57/A  50026;43.66114483056827;11.182862151589953
50569;SAN CASCIANO EST;NUOVA SIDAP S.R.L.;RACC. SIENA-FIRENZE KM 41+893 // 50026;43.61881076491031;11.187634407198951
40908;SAN CASCIANO OVEST;NUOVA SIDAP S.R.L.;RACC. SIENA-FIRENZE KM 43+600  50026;43.60597766594523;11.190963207340253
46493;TM04790;SALIERI NICO;SS. 67 KM. 128+070 67 50060;43.92856657351415;11.621556256894905
54595;Bambi Alfiero e Bambi Andrea Snc;BAMBI ALFIERO E BAMBI ANDREA - S.N.C.;VIA DEI TURRI 20 50018;43.757371959394106;11.187066905487882
58270;ESSO;A&S PETROL S.N.C. DI ALESSIO CAMPIGLI E SIMONE CAMPIGLI;VIA DELLE NAZIONI UNITE   10 50018;43.76738876783398;11.158527077388674
5291;Firenze - Scandicci;BEYFIN S.P.A. SOCIETA' BENEFIT;VIA PISANA  50018;43.76508851230084;11.162133514881134
57366;IP  47682;POWER DI DE CRISTOFARO SAVERIO;SS67 LOC. OLMO SCANDICCI  50018;43.7659438;11.1558057
13739;METANO SCANDICCI;METANO SCANDICCI S.R.L.;VIA DEI PRATONI 11/13 50018;43.77251360679481;11.151174889935305
26911;PV 4843;GESTIONI INNOVATIVE ITALIA S.R.L.;VIA B.DA MONTELUPO SNC 50018;43.7649494324733;11.177605837583542
51427;PV ALA SCANDICCI;ALA CARBURANTI S.R.L.;VIA EMPOLESE 3 50018, SCANDICCI (FI) 3 50018;43.69610906585635;11.101474761962885
42206;soc torre;TORRE DI RICCITELLI STEFANO & C. - S.N.C.;VIA DONIZETTI 79 50018;43.760083575512105;11.180273086577586
10661;stazione di servizio esso di Zurlo & C snc;STAZIONE DI SERVIZIO DI ZURLO DENNY E C. S.N.C.;DELLE NAZIONI UNITE 10 50018;43.76736953009038;11.158558130264282
9112;SAN PIERO A SIEVE - TAIUTI;SIRTAM S.P.A.;S.P. 65 BOLOGNESE - SAN PIERO A SIEVE  50037;43.94856940024065;11.311371624469757
52786;SCARPERIA VIA GIACOMO MATTEOTTI 47;SERVIZI & GESTIONI ITALIA S.R.L.;MATTEOTTI 47 50038;43.9924496;11.3542353
53026;SOPETI SAN PIERO;SOCIETA' PETROLIFERA TIRRENA - SO.PE.TI. - S.R.L.;STATALE 65 KM24+250 50038;43.95014376867223;11.311659761844636
53231;STAZIONE DI SERVIZIO " OIL ITALIA ";ROMAGNOLI MASSIMO & C. S.A.S.;LOC. CASE NUOVE TAIUTI SNC 50038;43.944503724949584;11.309486854437791
27356;Stazione Rifornimento AQUILA di Galeotti Daniele,Mugelli Gabriele e c. snc;GALEOTTI DANIELE MUGELLI GABRIELE E C. SNC;VIALE KENNEDY 115 50038;43.97884602604943;11.33737564086914
59510;stazione romgnoli srl beyfin;STAZIONE ROMAGNOLI SRL;via la torre petrona  33 50038;43.9633332;11.3388211
3510;BISENZIO OVEST;BLU SERVICE DI NENCETTI SIMONE & C. S.N.C.;Autostrada A1 MILANO-NAPOLI, Km. 279+800, dir. Sud - 50019;43.83969433000652;11.162055568122923
55814;DUE V s.n.c.;DUE V DI VITRANO CLAUDIO E VITRANO ALESSANDRO S.N.C.;Via dell'Osmannoro 244 50019;43.8208308;11.1904756
58354;Eni di Simone Mandò;MANDO' SIMONE;Viale Pratese 94  50019;43.84197809614209;11.185836225111169
55852;ESSO SESTO FIORENTINO VIA LUCCHESE 116 LOC. OSMANNORO;ESSO SESTO FIORENTINO VIA LUCCHESE 116 LOC. OSMANNORO;LUCCHESE LOC. OSMANNORO 116 50019;43.808750000000003;11.172816600000001
36724;FIRENZE NORD;SARNI S.R.L.;Autostrada A1 MILANO-NAPOLI, Km. 4+600, dir. NORD - 50019;43.83286286066999;11.160603314638138
14071;il pegaso s.n.c. di margarini massimo e david;IL PEGASO S.N.C. DI MARGARINI MASSIMO E DAVID;VIA GRAMSCI 474/476 50019;43.82955304864728;11.208816466270491
29957;IP;TOTALERG DI SAVA ION;GIULIO CESARE 35/37 50019;43.836221911640365;11.190971932540833
55514;MASSIMO MARTINI;RAUGEI EDO & BIANCALANI ROBERTO S.A.S. DI MARTINI MASSIMO & C.;PRATESE 36 50019;43.83929818098948;11.191286349773426
4995;OILFIN;OILFIN S.R.L.;VIA FERRUCCIO PARRI 6/8 50019;43.840595625331765;11.175780603388148
3500;PERETOLA NORD;sara srl;Autostrada A11 FIRENZE-PISA N., Km. 3+000, dir. Ovest - 50019;43.81950641010759;11.173160117721523
3861;PERETOLA SUD;ENI FUEL S.P.A.;Autostrada A11 FIRENZE-PISA N., Km. 3+000, dir. Est - 50019;43.81833036988592;11.172902584075928
34321;SESTO FIORENTINO;STAR SERVICE S.R.L.;VIA P PASOLINI  50019;43.81985050745649;11.20680570602417
47006;SHELL SESTO FIORENTINO - V.LE PRATESE;SHELL SESTO FIORENTINO - V.LE PRATESE;Viale Pratese 68 50019;43.84124178274129;11.187481714421668
43490;stzione Q8 JKV sas;JKV DI NIERI VALENTINA & C SAS;via provinciale lucchese 31 50019;43.80543239788912;11.180034955440987
29223;8088;T.D.M. S.R.L.;66 KM. 15+702 - 50058;43.811217647749274;11.080061942338943
11155;Brini e Bettarini;BRINI CARLO & BETTARINI ROBERTO S.N.C.;VIA PISTOIESE 327 50058;43.813252484045236;11.066374831213352
54272;Esso 331627;OIL & WASH COLLI ALTI DI GALLI SILVIO;Via Dei Colli s.s. 325 km 88+665 snc 50058;43.8003905;11.1068285
6937;Vezzosi Mauro e Filippo snc;VEZZOSI MAURO E FILIPPO S.N.C.;viale Arte della Paglia 10, 50058  ;43.78660944463103;11.101405620574951
54410;MV carburanti;MV CARBURANTI SRL SEMPLIFICATA;Via del Chianti 10  50028;43.5618288;11.1802515
41476;stazione Eni 14708;VANNI DUCCIO;via chiantigiana s.c. 50028;43.54588257797509;11.227458715438843
51319;DISTRIBUTORE IP - VAGLIA;F.LLI MENCHETTI SNC DI ALESSANDRO E NATALE MENCHETTI;VIA FIORENTINA / 50036;43.84536694260526;11.290465713517117
5084;Chioscar snc;CHIOSCAR SNC DI CIUCCHI FRANCESCO E ROSARI MARCO;VIA BARDUCCI, RENZE 21 50039;43.93790803372079;11.44159020370489
7673;STAZIONE DI RIFORNIMENTO SHELL;LAPI SAMUELE & GIUSEPPE S.N.C.;VIA VIA MARTIRI DI CAMPO DI MARTE 10 50039, VICCHIO (FI) 10 50039;43.93402513288584;11.458285568122847
42222;8087;T.D.M. S.R.L.;PROV.LE MERCATALE 250 50059;43.74177777991287;10.901294071163875
20277;desideri snc ;AUTOLAVAGGIO DESIDERI S.N.C. DI DESIDERI LUIGI E ALESSANDRO E C.;VIA L. DA VINCI 371/373 50059;43.73129695039245;10.917478501796722
8492;Eni;CIAMPI ALESSIO;via provinciale mercatale 8/10 50059;43.77116548106554;10.917835235595703
51528;VINCI VIA PALMIRO TOGLIATTI 219;SERVIZI & GESTIONI ITALIA S.R.L.;VIA PALMIRO TOGLIATTI 219 50053;43.72794327649014;10.936059269940577
52654;AREA SERVIZIO CASE ROSSE;DA BEGNAME SOCIET A RESPONSABILIT LIMITATA O IN FORMA ABBREVIAT A DA BEGNAME S.R.L.;LOC. IL PIANO SP 64 IL CIPRESS  58031;42.89647643518997;11.517080962657928
20861;Stazione di servizio Esso;RAFFI MASSIMILIANO;Strada Provinciale Arcidosso  58031;42.87163177024889;11.532678008079529
29676;AUTOGRILL CAPALBIO;BIAGI ALFIDIO & C. SAS;Statale 1 Via Aurelia, Km. 132+150, dir. SUD  58011;42.41494987355314;11.36535108089447
13840;BAR IL GIRASOLE;ROSI SAURO;Statale 1 Via Aurelia, Km. 127, dir. Nord  58011;42.414852132217014;11.425706592343204
29614;CAPALBIO - AURELIA;"IP SERVICES S.R.L.";SS 1 AURELIA KM 128,720  58011;42.4149039604422;11.407037550926248
6573;CAPALBIO LC.NUNZIATELLA S.S. 1 AURELIA KM. 133;SERVIZI & GESTIONI ITALIA S.R.L.;S.S. 1 AURELIA KM. 133 LC.NUNZIATELLA SNC 58100;42.41502670808588;11.351958741738827
51433;capalbio sud - l'oasi di Capalbio;PANTA IMPIANTI DISTRIBUZIONE CARBURANTI E AFFINI S.R.L.;1 Via Aurelia, Km. 130, roma - 58011;42.41462638642552;11.384947744152896
56234;ENERPETROLI - PV CAPALBIO BORGO CARIGE;ENERPETROLI S.R.L.;S.P. CAPALBIO - LOC. BORGO CARIGE  58011;42.42483;11.41608
48849;ENERPETROLI CAPALBIO BORGO CARIGE;CIANCHETTA EMANUELE;LOCALITA' BORGO CARIGE SNC 58011;42.42472211082569;11.415989064143227
58942;PANTA;FRATELLI ROSI S.R.L.;SS 1   58011;42.4150868;11.4263867
30452;CASTEL DEL PIANO - ROMA 21;"IP SERVICES S.R.L.";VIA ROMA 21 58033;42.88728820857191;11.535596559524492
15001;CECCARELLI MARIO;CECCARELLI MARIO;VIA DEL GALLACCINO 14 58033;42.89072182318114;11.528104171156883
27178;esso;FUTURA DI GRECO SIMONETTA E C. S.N.C.;PROVINCIALE CASTIGLIONESE SNC 58043;42.768715390974336;10.885596937196397
53955;esso;BAR BELLI 2 DI BELLI SOFIA;DEL PORTO 3 58043;42.80519;10.76490
56264;ESSO CASTIGLIONE DELLA PESCAIA VIA DEL PORTO 3 LOC. PUNTA ALA;ESSO CASTIGLIONE DELLA PESCAIA VIA DEL PORTO 3 LOC. PUNTA ALA;LOC. PUNTA ALA - VIA DEL PORTO 3 58043;42.805337999999999;10.76539
25761;SELF AREA 4966;DI VIVONA FRANCESCO;VIA ANSEDONIA  32 58043;42.76121886274206;10.887711010873318
9749;TAMOIL;ELETTRAUTO SERVICE S.N.C. DI VITI GIANCARLO E C.;STRADA PROV.LE  3 PADULE SNC 58043;42.771032556185325;10.889827609062195
27862;TOTAL EXPO;TOTALEXPO DI ANTONIO BENINCASA;MARCONI 88 58043;42.76500741825929;10.871012705804446
50659;CINIGIANO;SYNERGY S.R.L.;Loc la Crocina snc 58044;42.893776861578246;11.398507663698842
32459;CINIGIANO - AMIATA MONTICELLO;"IP SERVICES S.R.L.";VIA AMIATA MONTICELLO  58047;42.88420048306433;11.479445170553504
29960;CINIGIANO - SP.CIPRESSINO;"IP SERVICES S.R.L.";S.P. 64 CIPRESSINO KM 10,662  58044;42.95747589406813;11.3833570846557
8297; PAGANICO;SIRTAM S.P.A.;Statale 223 di Paganico, Km. 22+700, dir. SIENA - 58045;42.928933895360956;11.265846490859985
23295;CIVITELLA PAGANICO CIPRESSINO;SIRTAM S.P.A.;S.P. 64 DEL CIPRESSINO  58045;42.92920648520498;11.266331970691681
47518;ENI SA.MA POWER S.A.S.;SA.MA.POWER S.A.S. DI NICOLA SABATINI & C.;LOC.LAMPUGNANO SS223 KM.34+806 SNC 58045;43.02869702857576;11.278731226921076
7021;IP;ANTONIO CASINI S.R.L.;VIA FRAZ. CIVITELLA MARITTIMA - VIA GROSSETO 1 58045, CIVITELLA PAGANICO (GR)  58045;42.997057634401386;11.285233497619629
42224;Piccinifuels - Civitella;PICCINI PAOLO S.P.A.;223 di Paganico, Km. 26.603, Grosseto  58045;42.97773110825657;11.282919279762268
36054;Autolavaggio D'avino Fabio ;TOTAL ERG DI D' AVINO FABIO;Via litoranea  4 58022;42.9262896818544;10.751923352710946
21576;cardini e lazzerini snc;CARDINI E LAZZERINI SNC DI CARDINI EDO E LAZZERINI MANOLA;VIA AURELIA SNC 58022;42.936195224194975;10.778027772903442
10222;Distributore di Follonica;TIRRENO GAS DI TAVOLIERI ARNALDO E C. S.N.C.;DIACCIO  58022;42.93945991506522;10.781149574471556
16317;DISTRIBUTORE SHELL DI SCOZIO GIUSEPPE;DISTRIBUTORE ESSO DI SCOZIO GIUSEPPE;VIA BICOCCHI   58022;42.92594062610336;10.756133973336546
11131;ENERPETROLI - PV FOLLONICA U.BASSI - GR;ENERPETROLI S.R.L.;VIA UGO BASSI SNC 58022;42.92796166424806;10.753251694527762
13142;ENI \tS & G SNC DI FERRETTI STEFANO E GIACOMO;S & G SNC DI FERRETTI STEFANO E GIACOMO;AURELIA SNC 58022;42.93564893727554;10.775361061096186
53298;f.lli carli andrea e claudio snc;F.LLI CARLI ANDREA E CLAUDIO S.N.C.;DELLE COLLACCHIE SNC 58022;42.914887023418714;10.769160801049793
49043;Follonica;NUOVA SIDAP S.R.L.;1 Via Aurelia, Km. 226+673, Nord - 58022;42.951615245171425;10.776901245117188
31855;FOLLONICA - SP 152 KM 46 VIA AURELIA NORD;SERVIZI & GESTIONI ITALIA S.R.L.;SP 152 KM 46 VIA AURELIA NORD  58022;42.93742614428065;10.730392076075077
34730;FOLLONICA B.FUEL;B.FUEL - S.R.L.;s.p. 152 "Vecchia Aurelia" km 42,500  58022;42.935584117195944;10.773259713425773
11130;FOLLONICA VIA SANTINI - GR;ENERPETROLI S.R.L.;VIA SANTINI SNC 58022;42.92596203372656;10.753037631511688
11614;GAVORRANO-LOC.LA MENGA VARIANTE AURELIA;SERVIZI & GESTIONI ITALIA S.R.L.;LOC.LA MENGA VARIANTE AURELIA S/N 58023;42.951404172544585;10.908896559524464
25242;shell;MARCONI E BARGAGLI S.N.C.;via curiel 10 bagno di gavorrano  58023;42.93840893267775;10.887863612233787
52003;04920;STEFANINI EMILIO;via Scansanese 25 58100;42.761393034616034;11.121452217349777
54957;4957 Grosseto Aurelia;ENI FUEL S.P.A.;VIA AURELIA SUD KM 179+720   ;42.74396;11.11805
51871;4961 – Grosseto Batignano;ENI FUEL S.P.A.;Strada Statale 223 Km 8+300 Fraz. Batignano  58100;42.84048810029954;11.152971450315212
51870;53628 – Grosseto;ENI FUEL S.P.A.;Via Aurelia Sud  58100;42.75121550266971;11.112872188121745
44758;8090;T.D.M. S.R.L.;SENESE 147 58100;42.771238651453366;11.120467362565591
8477;8091;PIAZZI GIANNI;Statale 1 Via Aurelia, Km. 185.500, dir. sud - -;42.74505741088775;11.116195321083069
22979;Aquila Il Bucchero;IL BUCCHERO DI COSMO LUCIANO & C. S.N.C.;Statale 223 di Paganico, Km. 1+370, dir. grosseto siena - 58100;42.810383645859;11.135748624801636
46816;Bernardini - Grosseto;BERNARDINI MICHELA;223 KM 2 + 509 SNC 58100;42.82850731826267;11.138811707496643
24630;CONAD SUPERMERCATI GROSSETO;CLODIA COMMERCIALE SRL;Via Bulgaria  35 58100;42.77558358909064;11.115090250968933
50693;CONAD SUPERMERCATO GROSSETO;CLODIA COMMERCIALE SRL;VIA SCANSANESE  58100;42.7623715074205;11.132437084655775
38753;DI VIVONA FRANCESCO;DI VIVONA FRANCESCO;VIA MONTEROSA 152 58100;42.772862853890956;11.113673374056816
22531;Distributore Carburati TOTALERG di Fuligni Fabio;FULIGNI FABIO;VIA SCANSANESE, STIACCIOLE 444  58100;42.77638834312402;11.172751846319898
55696;DISTRIBUTORE ENI;VINCENTI GIAURO;SENESE 85 58100;42.76850055496255;11.119270903110532
32028;EMPORIO DA PIETRINO SNC;EMPORIO DA PIETRINO S.N.C. DI GRANDINI LUISELLA E CHERUBINI FABRI ZIO;VIA SCANSANESE 480 58100;42.77957656692439;11.177132427692413
34028;ENERPETROLI - PV GROSSETO VIA GIULIO CESARE;ENERPETROLI S.R.L.;VIA GIULIO CESARE 73 58100;42.76644003508155;11.102463752031326
41612;ENERPETROLI - PV GROSSETO VIALE DELLA REPUBBLICA;ENERPETROLI S.R.L.;VIALE DELLA REPUBBLICA 21 58100;42.755305376599225;11.10461113693998
31126;ENI DI PASQUI PAOLO;PASQUI PAOLO;VIA AURELIA NORD KM. 162  58100;42.778787126629865;11.09894871711731
57044;ESSO;DARIEN S.A.S. DI GRECO SALVATORE;Via Delfino Principina a Mare SNC 58100;42.69994208962621;11.00731372833252
52481;ESSO - GROSSETO BIVIO ROSELLE 104;ESSO - GROSSETO BIVIO ROSELLE 104;ROSELLE S.S. 223 KM 2 + 969 58100;42.797874424406324;11.134345447560635
53716;ESSO - GROSSETO V.LE SONNINO 57;ESSO - GROSSETO V.LE SONNINO 57;SONNINO 57 58100;42.763431400000002;11.108230499999999
50158;ESSO GROSSETO;JONATHAN PNEUMATICI DI FREGOLI JONATHAN;VIALE SONNINO 57 58100;42.752559403108464;11.112141907215113
56936;ESSO Variante Aurelia, Km 196+455 Loc. BRACCAGNI;ESSO Variante Aurelia, Km 196+455 Loc. BRACCAGNI;1 AURELIA KM 196+455 58100;42.868188000000004;11.075946
13966;fanfani marco;FANFANI MARCO;AURELIA SUD 3 58100;42.751873599517296;11.112678945064545
48115;GOLDENGAS Shell Grosseto;GOLDENGAS - SOCIETA' PER AZIONI;Via Aurelia Sud 51 58100;42.746659874902896;11.114845173748495
51067;Grifo Carburanti;GRIFO CARBURANTI S.R.L.;VIALE CARAVAGGIO 65 58100;42.74916869923278;11.11189277041856
24199;GROSSETO;TIBER OIL S.R.L.;VIA AURELIA NORD 50 58100;42.769542447545476;11.107818961143494
25075;GROSSETO - AURELIA NORD;"IP SERVICES S.R.L.";VIA AURELIA NORD 17  58100;42.768819690086296;11.108724139881133
30299;GROSSETO - VARIANTE SS1;"IP SERVICES S.R.L.";VARIANTE S.S. 1 - AURELIA KM. 189,260  58100;42.805611807031255;11.093983906745962
27933;Grosseto Aurelia;"IP SERVICES S.R.L.";Via Aurelia Nord 98 58100;42.77335014973591;11.10515333712101
50510;GROSSETO BANDITELLA;SIRTAM S.P.A.;1 Via Aurelia, Km. 170+999, GROSSETO - 58100;42.6748650748414;11.141434816445214
6574;GROSSETO DEI MILLE 107;SERVIZI & GESTIONI ITALIA S.R.L.;VIA DEI MILLE 107 58100;42.752922768288286;11.11264944076538
56602;GROSSETO EASY SERVICE CC MAREMA';EASY SERVICE S.R.L.;Via Ecuador  58100;42.78839100862606;11.117757996006029
21656;GROSSETO ROSELLANA, 135;SERVIZI & GESTIONI ITALIA S.R.L.;ROSELLANA 135 58100;42.79541954741251;11.132650673389435
6572;GROSSETO VIA AURELIA NORD KM.184;SERVIZI & GESTIONI ITALIA S.R.L.;VIA AURELIA NORD KM.184 SNC 58100;42.778203603749915;11.100584864616394
42100;GROSSETO VIALE GIUSTI;STAR SERVICE S.R.L.;VIALE GIUSTI  58100;42.77467710082975;11.101890429854393
11613;GROSSETO-VIA AURELIA NORD 120;SERVIZI & GESTIONI ITALIA S.R.L.;VIA AURELIA NORD 120 58100;42.77693034423373;11.101794635581996
9294;IP;LOZZI SILVIA;VIA AURELIA KM.174 SN, 58100 183 58100;42.70787446566384;11.14086627960205
38925;IP MARTINI ALESSANDRO ;MARTINI ALESSANDRO;CASTIGLIONESE 49 58100;42.77050605994606;11.093505844473839
50649;IP STAZ SERV . BRACCAGNI;DARIEN S.A.S. DI GRECO SALVATORE;VIA ELENA LUCREZIA CORNARO EX VIA AURELIA VECCHIA 58 58100;42.87180751800218;11.0756504535675
43770;Mac Grosseto Nord;TORREGAS - S.R.L.;Località Rugginosa  58100;42.80102304802358;11.08415871717932
43771;Mac Grosseto Sud;TORREGAS - S.R.L.;Strada provinciale 158 58100;42.74982560496126;11.093877201223336
13526;MARINA CARBURANTI;MARINA CARBURANTI S.R.L.;VIA GROSSETANA, MARINA DI GROSSETO 60 58100;42.71877367773859;10.990595793254101
55968;NUOVA PESA SRL ;NUOVA PESA S.R.L.;SENESE 175 58100;42.77902;11.12476
47570;Q8;BACCI PIER LUIGI;VIA CASTIGLIONESE 67 58100;42.771744000123;11.090228000123
57355;q8 pv4385;BIT EVOLUTION DI CORSINI A. & C.SAS;Via Pietro Mascagni 77 58100;42.75981689241537;11.122475867916592
36766;stazione di serviozio esso di giannini filippo;STAZIONE DI SERVIZIO ESSO DI GIANNINI FILIPPO;VIA DELLA PACE 129 58100;42.76909453219253;11.111423726983617
39017;STAZIONE DI SERVIZZIO DI GIANNINI FILIPPO;STAZIONE DI SERVIZIO ESSO DI GIANNINI FILIPPO;VIA AURELIA NORD 56 58100;42.7715384979936;11.10641303865782
50225;Tirrenogas Grosseto;TIRRENO GAS DI TAVOLIERI ARNALDO E C. S.N.C.;AURELIA NORD 236 58100;42.78478740743983;11.092790365219116
15767;UNIONE GAS AUTO SPA - MY EN;MF SNC DI ANGELI M. & SINIBALDI F.;VIA SCANSANESE 309 58100;42.766042081863006;11.15630641579628
31928;Bancalà Emanuele distributore q8;BANCALA' EMANUELE;via umberto I 67 58012;42.35942388048221;10.92087613739966
52232;LOC MONTICELLO;BANCALA' EMANUELE;BANCALA EMANUELE DISTRIBUTORE Q8 67 58012;42.363811100454555;10.914606442626992
47275;Ala Carburanti;BRICOLOBI S.R.L.;Strada provinciale 160 amiatina km. 97,400  58051;42.5853492792878;11.286461353301997
18329;KALOROIL MANCIANO;KALOROIL DI BARTOLINI MARIO E FIGLI S.R.L.;VIA PARIDE PASCUCCI SNC 58014;42.5924218264777;11.520582373584261
18330;KALOROIL SATURNIA;KALOROIL DI BARTOLINI MARIO E FIGLI S.R.L.;VIA DELLE TERME 51, 58014  ;42.65511063947189;11.511208960499175
50661;MANCIANO;SYNERGY S.R.L.;Via Circumvallazione Nord  37 58014;42.58892177906998;11.517132428601773
9185;TAMOIL;PAMPANINI SERGIO E C. S.N.C.;S.R. 74 km 11,770 - -;42.53497095179947;11.336098909378052
5946;MASSA MARITTIMA;"IP SERVICES S.R.L.";Via Circonvallazione 2 58024;43.05198735973446;10.887038597553214
21016;Stazione Rifornimento Shell;BARGELLI S. & C. S.N.C.;LOCALITA' SCHIANTAPETTO  58024;43.03318378123235;10.884260684251785
34220;04947;ALOCCI MARTINA;strada provinciale orbetellana  58019;42.40547756998365;11.200216859579086
9633;Argentario Carburanti;ARGENTARIO CARBURANTI S.R.L.;VIA CAMPONE ALTO SNC 58019;42.41849469090976;11.115725790085662
30836;Confessore Rino;CONFESSORE RINO;TERRA ROSSA SNC 58018;42.42557740544466;11.197828352451324
47219;ENI PV4904;VILARDI MICHELE;PIAZZA DEL VALLE SNC 58019;42.43441563319328;11.12233256917444
58497;IP Palmerini Petroli;PALMERINI PETROLI DI THOMAS PALMERINI;PROVINCIALE 161 KM 8+700 58019;42.42975979876025;11.163249177909854
4370;località Costa di Teva;ARGENTARIO TRADE S.R.L.;località  Costa di Teva S.P. 161 KM 8+700  58019;42.42980273153456;11.163234561681747
47647;PIERONI ANDREA;PIERONI ANDREA;VIA MOLO MARINAI D' ITALIA SC 58019;42.43543191061528;11.122724562883372
23662;reteitalia;BARZANTI IRENE;piazza Mario Cheli   58025;43.14708983885971;10.856137810457994
15366;keropetrol;SOZZI ANDREA;LOCALITA' GABELLINO SNC 58026;43.07839327334394;11.015451550483704
54705;4956 Orbetello;ENI FUEL S.P.A.;Loc. Fonteblanda – p.te Osa  ;42.54653;11.17565
16677;AGIP;VILARDI MICHELE;MARCONI  58015;42.440566502779824;11.214853674173355
50709;Beyfin Orbetello;E.G PUNTO SOSTA SAS DI GIUGGIOLI EMILIANO & C.;LA POLVEROSA - STR. REG. 74 KM 7 58015;42.52134937220107;11.28011687935539
16600;ENERPETROLI ;SASSETTI FABRIZIO;VIA MONTIANESE 24 58015;42.56575347622328;11.171282610838716
34157;ENI OSA;STAZIONE DI SERVIZIO DI RINALDI MARIO;Statale 1 Via Aurelia, Km. 156, dir. sud - 58015;42.546599156869064;11.175689399242401
40123;IP;MAGAROTTO ANDREA;Statale 1 Via Aurelia, Km. 150+200, dir. roma - 58015;42.50040260140667;11.20401956140995
45508;IP Orbetello Scalo;BENICCHI CESARE;1 Via Aurelia, Km. 144,400, nord - 58015;42.45924539434173;11.247215867042542
23997;ORBETELLO - FONTEBLANDA;STAR SERVICE S.R.L.;Statale 1 Via Aurelia, Km. 159+200, dir. GROSSETO - ;42.57387227493479;11.167409420013428
32998;ORBETELLO - FONTEBLANDA;"IP SERVICES S.R.L.";VIA AURELIA KM. 159,830  58010;42.57883700485404;11.164709212303137
27264;ORBETELLO OIL ITALIA;OIL ITALIA SRL;STRADA PROVINCIALE N.7 BARCA DEI GRAZI  SNC 58100;42.51354230288021;11.242410304087116
52781;ORBETELLO SS AURELIA,244 KM 152+090 ALBINIA;SERVIZI & GESTIONI ITALIA S.R.L.;1 KM 152+095 SNC 58015;42.5153623;11.1944954
34023;Panta Talamone;CI.ERRE. NAUTICA S.R.L.S.;Piazza del Porto 1 58015;42.55428534969903;11.135302037000656
25576;Stazione di Servizio ESSO di Vanni C & Segato M snc;VANNI CESARE E SEGATO MARCO S.N.C.;PIAZZA MARIO CORTESINI 35, 58015 - -;42.43948929829656;11.213878020644188
12621;Stazione di servizio PANTA s.r.l.;MONFREDA GIANCARLO;strada Provinciale 440 km 2+272  58015;42.44374758190295;11.229059336376167
10347;giovanni dondolini;DONDOLINI GIOVANNI;VIA N. CIACCI 513 58017;42.63655258278026;11.674544631056051
58848;Impianto Eni;PERA ALESSANDRO;NICOLA CIACCI 513 58017;42.636513;11.674567
18332;KALOROIL PITIGLIANO;KALOROIL DI BARTOLINI MARIO E FIGLI S.R.L.;STRADA REGIONALE MAREMMANA 74  55372 58017;42.647349692325456;11.707957434752302
57340;PITIGLIANO VIA N. CIACCI;KALOROIL DI BARTOLINI MARIO E FIGLI S.R.L.;Via Niccola Ciacci 193 58017;42.63453852015397;11.671728888200688
20572;BOCCINI BRUNO;BOCCINI BRUNO;STRADA STATALE 323 SNC 58053;42.78301533779549;11.483602970838547
43537;8089;T.D.M. S.R.L.;MONTEMASSI 88 58036;42.970230062593714;11.03930111660236
12586;Distribuore Da Frassini;DA FRASSINI ANDREA;VIA ROMA 201/B 58036;43.02561114770337;11.090097427368164
27253;DISTRIBUTORE IP di BONCIOLI PAOLO E ANDREA;BONCIOLI LUCIANO DI BONCIOLI PAOLO E ANDREA SNC;VIA MAZZINI 55 58036;43.013739161595076;11.166065633296967
43837;Geno Srl;GENO SRL;Loc. Il Terzo Snc 21 58036;43.00111967345741;11.171936996628574
21662;Staz. Servizio di Vecchiarelli Tito e Piero Snc;VECCHIARELLI TITO & PIERO SNC;S.P. 19 DI MONTEMASSI  58036, ROCCASTRADA (GR) SNC 58036;42.92544663898517;11.08071858810581
39996;BALDUCCI SNC;BALDUCCI S.N.C. DI BALDUCCI ROBERTO & C.;VIA martiri di niccioleta 17 58037;42.83457021741693;11.584484818385363
32908;SCANSANO;STAR SERVICE S.R.L.;S.P. DELLE COLLACCHIE  58054;42.693509348474414;11.320925652980804
50660;SCANSANO;SYNERGY S.R.L.;S.P. Fronzina km 24- Loc. Baccinello snc 58054;42.78911016159195;11.36141799033821
51574;Andrea Raffaelli Soccorso Stradale;RAFFAELLI ANDREA;STRADA PROVINCIALE N.158 KM 10+970  snc 58020;42.85488593254055;10.806830999999981
56842;ESSO - SCARLINO V. AURELIA LOC. CASONE;ESSO - SCARLINO V. AURELIA LOC. CASONE;1 AURELIA - LOCALITA' CASONE SNC 58020;42.940308;10.806527
15613;ESSO DI IMPARATO SALVATORE ;IMPARATO SALVATORE S.A.S.;Statale 1 Via Aurelia, Km. 224, dir. SUD - 58020;42.940209639380505;10.806766301393509
53300;f.lli carli andrea e claudio snc;F.LLI CARLI ANDREA E CLAUDIO S.N.C.;STATALE 322 KM 5+532 SNC 58020;42.89818592438348;10.784909725189209
50723;IP RAFFAELLI E SOCCORSO STRADALE H 24;PUNTO AUTOTRASPORTI S.A.S. DI RAFFAELLI F. & C.;S.P. N. 158 DELLE COLLACCHIE KM 10+970 SNC 58020;42.854894579875335;10.80684804287801
8718;La Castellina s.s.1;PITTALIS RAIMONDO FRANCESCO & C. S.N.C. DI PITTALIS RAIMONDO FRAN CESCO E PITTALIS GIOVANNA RITA;Statale 1 bis Via Aurelia, Km. 223, dir. Roma - 58020;42.95867210715349;10.816238522529602
7447;S.A.M. Scarlino;SOC. AUTOTRASPORTI MONTEFELTRO-S.A.M.;SP. 152 Aurelia Vecchia Km.48+300 Scarlino Scalo  58020;42.94351568016679;10.825131386518478
46006;KALOROIL CATABBIO;KALOROIL DI BARTOLINI MARIO E FIGLI S.R.L.;LOCALITA' CASE RIGO SNC 58055;42.6997606397355;11.56418556322626
51386;6101;T.D.M. S.R.L.;DELLA REPUBBLICA S.N.C. 58010;42.66917357403328;11.7629446490738
25594;Area di rifornimento La Botte;AZIENDA AGRICOLA CASTELMONTORIO EREDI DI GORIA CARLO;LOCALITA' MONTORIO SNC, 58010  58010;42.73135737392533;11.762920171022415
31345;Officina Gagliardi e C. Snc;OFFICINA GAGLIARDI E C. S.N.C. DI GAGLIARDI RICCARDO E COSTANZI F LORIANO;DEL PRETORIO 39/43 58010;42.65742241954757;11.647913912222407
29208;tamoil;CHECCHINI SONIA;PIAZZA DELLA REPUBBLICA 13/B 58010;42.669009377870836;11.762951804935142
46735;Manfredi Samuele snc;MANFREDI S.N.C. DI MANFREDI SAMUELE & C.;AURELIA 47 57020;43.27103381655962;10.542469914701996
45071;PV MARINA DI BIBBONA;ALA CARBURANTI S.R.L.;VIA LOC.MARINA DI BIBBONA VIA PROV.LE DEI MELOGRANI 11 57020, BIBBONA (LI) 11 57020;43.24720728482552;10.54064691066742
58214;5049 CAMPIGLIA MARITTIMA;ENI FUEL S.P.A.;LOC. VENTURINA-SS1 AURELIA  KM.246+200  ;43.03099;10.598796
45597;ADS VENTURINA;CHECCHI CARBURANTI DI CHECCHI DANIELE & C. S.N.C.;1 Via Aurelia, Km. 245+10, ROMA - 57021;43.018311241961214;10.589698353075846
21153;CAMPIGLIA EST;CAMPIGLIA - S.R.L.;LOCALITA' AFFITTI  57021;43.00325798125213;10.6111179292202
51087;CAMPIGLIA MARITTIMA;SYNERGY S.R.L.;VIA CERRINI 142 57021;43.01710773902328;10.595207628355764
43937;CIBA DI CECCHINI FABIO E C. SNC;CIBA DI CECCHINI FABIO E C. SNC;AURELIA SUD 5/A 57021;43.02333341039866;10.608962774276733
31274;CONAD ETRUSCO S.R.L.;ETRUSCO S.R.L.;Via Dell'Agricoltura 41 57021;43.027692389953586;10.611718850279658
59019;Distributore di San Vincenzo;TIRRENO GAS DI TAVOLIERI ARNALDO E C. S.N.C.;Via di Campiglia  - Località Masseto - San Vincenzo  57027;43.079360012013524;10.55631599828339
8081;EFFE & EFFE;EFFE & EFFE DI FAUCCI RAMONA E FERRETTI NICOLA S.N.C.;Statale 1 Via Aurelia, Km. 243, dir. roma  57029;43.03100474981981;10.598696619272232
48680;EUROPAM S.R.L. - CAMPIGLIA MARITTIMA;EUROPAM S.P.A.;VIA INDIPENDENZA - FZ VENTURINA 269 57021;43.032426468212506;10.597026822090147
37896;PROGETTO GAS;PROGETTO GAS SRL;VIA DEI FALEGNAMI 36 57021;43.00619544099125;10.586963674566618
43334;PV CAMPIGLIA;ALA CARBURANTI S.R.L.;VIA VIA DI VENTURINA SC 57021, CAMPIGLIA MARITTIMA (LI) SNC 57021;43.05741853014303;10.614836046627033
58180;Stazione di Servizio IP di Garramone Andrea;STAZIONE DI SERVIZIO IP DI GARRAMONE ANDREA;INDIPENDENZA 9 57021;43.02605429391581;10.604929466270434
38283;AREA DI SERVIZIO ENI;PISANI ALESSANDRO;PER PORTOFERRAIO 656 57034;42.75218616583377;10.23483082652092
56643;BEYFIN MOLO;NICSERVICE DI PETROCCHI MARCO & C. SNC;Molo del Pesce  57034;42.743363;10.237929
37918;DISTRIBUTORE ALZI - BEYFIN;PIZZOLANTE ANDREA;ALZI - VIA PROV. POMONTE SNC 57034;42.74320139989684;10.216800055048338
45349;DISTRIBUTORE BEYFIN LA PILA;PIZZOLANTE ANDREA;LA PILA SNC 57034;42.76620591050832;10.236551463603973
55497;capraia rifornimenti;CAPRAIA RIFORNIMENTI S.R.L.;via assunzione 75 57032;43.05153014111591;9.83688622713089
58881;5098 CASTAGNETO CARDUCCI;ENI FUEL S.P.A.;FRAZ. DONORATICO VAR. AURELIA KM. 257  +665  ;43.122055;10.545606
57203;8093;T.D.M. S.R.L.;VIA AURELIA KM. 264  ;43.173464;10.5663187
24056;Area Servizio Le Colonne;FOSSI MICHELA E FOSSI FEDERIGO SNC;VIA AURELIA KM.257 665, 57022 - -;43.122023775499656;10.545439267079928
44724;BEYFIN;ALESSIO CARBURANTI DI SIGNORINI ALESSIO & C. S.A.S.;Strada Statale 329, Km. 2,015, dir. SUD  57022;43.168704236957836;10.585202425718307
46066;CASTAGNETO B.FUEL;B.FUEL - S.R.L.;VIA UMBERTO I 43 57022;43.15993297230388;10.606832504272461
6564;CASTAGNETO CARDUCCI AURELIA SUD 241;SERVIZI & GESTIONI ITALIA S.R.L.;AURELIA SUD 241 57022;43.16204885944747;10.563358693254031
11620;CASTAGNETO CARDUCCI-FZ.DONORATICO VIA AURELIA;SERVIZI & GESTIONI ITALIA S.R.L.;FZ.DONORATICO VIA AURELIA S/N 57024;43.175630138856945;10.56704118847847
6563; CECINA V.AURELIA KM.278+025- LOC. CEDRINO;SERVIZI & GESTIONI ITALIA S.R.L.;V.AURELIA KM.278+025- LOC. CEDRINO SNC 57023;43.29378364543625;10.526449978351593
42571;54101 Cecina;ENI FUEL S.P.A.;via Variante Aurelia Km 273  57023;43.2897587750513;10.543888300507888
47633;ACI;ALL STAR CARBURANTI DI NARDINI MICHAEL;VIA VIA AURELIA AL KM 280 + 739 SNC 57023, CECINA (LI) 1 57023;43.316225697502034;10.513486652028206
23421;AQUILA-CECINA;PIO LUCA, MARCO & C. SNC;VIA MONTANARA SNC 57023;43.31379625939881;10.52788496017456
10108;Cecina;"IP SERVICES S.R.L.";Via Aurelia Nord  Loc. San Pietro in Palazzi  57023;43.32869349978992;10.503674000501633
32475;CECINA B.FUEL;B.FUEL - S.R.L.;VIA DEL PARATINO 9/E 57023;43.30444181854402;10.54328411737447
11622;CECINA LI-SS.1 VARIANTE AURELIA LATO DESTRO;SERVIZI & GESTIONI ITALIA S.R.L.;SS.1 VARIANTE AURELIA LATO DESTRO S/N 57023;43.28980933258288;10.543288863754242
28139;Cecina Matteotti;"IP SERVICES S.R.L.";Corso Giacomo Matteotti 354 57023;43.299963336771995;10.523166954517365
11621;CECINA-LOC.PALAZZACCIO AURELIA 365/B;SERVIZI & GESTIONI ITALIA S.R.L.;LOC.PALAZZACCIO AURELIA 365/B 57023;43.30110019406791;10.522947013378143
52895;CONAD CECINA;FORMENTERA S.R.L.;VALDICECINA 70 INT 2 57023;43.3300;10.5243
55106;ENI;CERRI GABRIELE;PISANA LIVORNESE KM 0,700 57023;43.333360891697644;10.50635153842566
11250;ESSO;CIGNI DALMAZIO E C. S.N.C.;CORSO MATTEOTTI 294/A 57023;43.30396760637648;10.52109816322934
55836;ESSO CECINA CORSO MATTEOTTI 294/F LOC. PALAZZACCIO;ESSO CECINA CORSO MATTEOTTI 294/F LOC. PALAZZACCIO;MATTEOTTI LO. PALAZZACCIO K279/184 57023;43.3029911;10.5215975
7632;Esso CM;C.M. S.N.C. DI MARCHIO' GIANLUCA E CODEVICO & C.;VIA AURELIA NORD 2 57023;43.31754593965860;10.513366162776930
33921;Gpl Elf;VANNI GIANLUCA;Via Montegrappa  128 57023;43.30654916243151;10.537227094173431
14600;STAZIONE ENI CARBURANTE;VADI GIANCARLO S.N.C. DI VADI GIANCARLO E DI QUIRICO SONIA;VIA AURELIA NORD KM 281  57023;43.31972530812731;10.512302666902542
58085;5026 COLLESALVETTI;ENI FUEL S.P.A.;S.S.202 -K.33 + 303  SNC  ;43.601536;10.472508
49184;ACI VICARELLO;CECCOTTI ANDREA DITTA INDIVIDUALE;VIA GALILEO GALILEI 84-86 57014;43.61128881253568;10.467393380205532
31492;COLLESALVETTI - S.S. 206;"IP SERVICES S.R.L.";S.S. 206 KM 33,585  57019;43.60386503941091;10.472151720237662
32823;COLLESALVETTI DIR FI;STAR SERVICE S.R.L.;SGC FI-PI-LI KM 70+650 DIR FI LOC.MORTAIOLO  57014;43.61193401512959;10.425317287445068
32994;COLLESALVETTI DIR LI;STAR SERVICE S.R.L.;SGC FI-PI-LI KM 69+449 DIR LI LOC.MORTAIOLO  57014;43.616771329127424;10.438979119062424
35303;COLLESALVETTI GRECCIANO;NEW GREEN FUEL S.R.L.;SGC FI-PI-LI KM 64+607  57014;43.622039307895356;10.49641728401184
55109;esso;esso;AURELIA 136 57014;43.558826;10.31565
59144;ESSO COLLESALVETTI LOC. VICARELLO VIA PISANA LIVORNESE NORD 95;ESSO COLLESALVETTI LOC. VICARELLO VIA PISANA LIVORNESE NORD 95;Loc. Vicarello Via Pisana Livornese Nord 95  57014;43.631045;10.457131
56100;ESSO COLLESALVETTI VIA AURELIA 136 - LOC. STAGNO;ESSO COLLESALVETTI VIA AURELIA 136 - LOC. STAGNO;AURELIA KM 320,98 STAGNO SN 57014;43.593519700000002;10.349479000000001
30730;EURPETROLI SAS;EURPETROLI DI MAMELI SIMONE S.A.S.;AURELIA 15/D 57014;43.58938249203169;10.34693559192658
54953;G.D. FUEL SRL;G.D. FUEL S.R.L.;SGC FI-PI-LI  DIR.LI.KM 69+449 SNC 57014;43.616664;10.439097
37729;Grecciano sud;EFFECI OIL & FOOD S.N.C. DI CARDINALI FLORISA E C.; SGR DIR FIRENZE SNC 57014;43.621273119812464;10.49623355269432
5671;lenzi claudio;LENZI CLAUDIO;VIA PISANA LIVORNESE KM. 31,400  57014;43.58426432219009;10.47235518693924
58619;MAC Interporto;TORREGAS - S.R.L.;Interporto  55011;43.600630;10.374892
28890;MORRONE MONICA;MORRONE MONICA;VIA EUROPA 9/11/13 57014;43.60131539363137;10.472599512164265
10221;Stazione di metano di Collesalvetti;TIRRENOMET S.N.C. DI TAVOLIERI ARNALDO & C.;AIACCIA 74 57017;43.57953740372085;10.357101887544331
54483;STRADA REGIONALE 206 PISANA LIVORNESE CARBURANTI TOSCANA SERVIZI SRL ;CARBURANTI TOSCANA SERVIZI S.R.L.;ST.LE 206 PISANA LIVORNESE SNC 57014;43.5889;10.475
56423; -ENI 53670- ;GIUSTI DANNY;Viale Francesco Petrarca 122 57124;43.54459137251292;10.326911732554436
29898;1263;T.D.M. S.R.L.;PETRARCA ANG. V. FERRIGNI 150 57124;43.54382180048641;10.326396077871323
55655;53663 LIVORNO;ENI FUEL S.P.A.;Via dell'Ardenza  57128;43.51890;10.32399
29489;7077;T.D.M. S.R.L.;DELL'ARTIGIANATO 21 57121;43.56515048172131;10.341841578483582
19599;Baroncini & Benvenuti snc;BARONCINI & BENVENUTI SNC DI BARONCINI STEFANO & BENVENUTI GRAZIA NA;viale petrarca 113 57100;43.543205252885;10.326592385319486
18237;CaLeLo;CA.LE.LO. S.R.L.;VIA FIRENZE 65 57121;43.574545210802604;10.33450573682785
18555;distributore esso grossi moreno e c. s.a.s;DISTRIBUTORE ESSO DI GROSSI MORENO & C. S.A.S.;VIA FIRENZE 18 57121, LIVORNO (LI) 18 57121;43.56181645779501;10.326154346032695
6274;Distributore Mac di Papi G. & c. sas;PAPI GIACOMO & C. S.A.S.;VIA CATTANEO CARLO 42 57128;43.53024935061863;10.318977952639784
57910;Distributore MAC Livorno;TORREGAS - S.R.L.;CATTANEO CARLO 42 57128;43.530292;10.318739
46348;Edra Oil ;MARINARI DANIELE;LARGO BELLAVISTA 8 57126;43.54060046807032;10.301972632461684
46706;ENI BARONTINI LORENZO;BARONTINI LORENZO;FIRENZE 36 57121;43.563054464867584;10.325593847195153
51940;Eni Station 05037;MAU CAR DI RAIGI MAURIZIO;PIAZZALE BARRIERA ROMA 82 57100;43.53258707922147;10.319235860118852
58159;ESSO - LIVORNO - VIA DI LEVANTE, SNC;PAD MULTIENERGY S.P.A;DI LEVANTE SNC 57124;43.529585;10.327694
50623;ESSO Ulivieri Luca;ULIVIERI LUCA;VIA DELL'ARDENZA KM. 312+626 80 57128, LIVORNO (LI) 80 57128;43.52749825356055;10.321580171585083
45684;EUROPAM - LIVORNO;EUROPAM S.P.A.;Via Mastacchi  317 57121;43.56321513277455;10.32969391534425
34221;Impianto di carburanti IP di Curzi simone;CURZI SIMONE;VIA DI MONTENERO 189 57128;43.49999170855866;10.342536270618439
46335;IP DI ATTANASIO ANDREA;ATTANASIO ANDREA;VIA DELLE SORGENTI 470 57121;43.56934264607765;10.37855364382267
57141;IP DI FORTE MASSIMILIANO;STAZIONE DI SERVIZIO S.N.C. DI FORTE MASSIMILIANO E C.;Via degli Etruschi 14  57124;43.54208178690477;10.33034808200075
56198;IP PV 47383;CA.LE.LO. S.R.L.;VIA FIRENZE 87 57121;43.575603;10.336089
14979;ITALIANA PETROLI Terreni e Bucchioni S.n.C.;TERRENI FRANCESCA E BUCCHIONI RICCARDO SOCIETA' IN NOME COLLETTIV;Via Luigi Settembrini 40/A  57128;43.5252405;10.3251055
10101;LIVORNO;"IP SERVICES S.R.L.";VIA VIA FIRENZE    (ANGOLO VIA LUZZATI). 36 57121, LIVORNO (LI) 36 57121;43.56439928797997;10.325211882591248
27759;LIVORNO - ANTIGNANO;"IP SERVICES S.R.L.";ANTIGNANO - VIA VESPUCCI  57100;43.49383384268782;10.324164373016401
29281;LIVORNO - FIRENZE 10;"IP SERVICES S.R.L.";VIA FIRENZE 10 57100;43.56073585966929;10.326367813491856
31486;LIVORNO - LEONARDO DA VINCI;"IP SERVICES S.R.L.";VIA LEONARDO DA VINCI 10 57100;43.573909716112674;10.320124139881159
32487;LIVORNO V.LE BOCCACCIO 21;SERVIZI & GESTIONI ITALIA S.R.L.;V.LE BOCCACCIO  21 57100;43.535625338973816;10.323584710416071
23320;LIVORNO V.NTE SS.1 KM.4,3 LATO MARE;SERVIZI & GESTIONI ITALIA S.R.L.;V.NTE SS.1 KM.4,3 LATO MARE  57121;43.5505760998068;10.342302918434143
40640;LIVORNO VARIANTE AURELIA SS1 KM 317+472;SERVIZI & GESTIONI ITALIA S.R.L.;VARIANTE AURELIA SS1 KM 317+472  57121;43.567762184267494;10.347437777246114
23319;LIVORNO VARIANTE SS 1 KM 4+320 L.MONTE;SERVIZI & GESTIONI ITALIA S.R.L.;VARIANTE SS 1 KM 4+320 L.MONTE  57121;43.550915038102424;10.343284215869176
48872;LIVORNO VIA DEL LITTORALE 283;SERVIZI & GESTIONI ITALIA S.R.L.;VIA DEL LITTORALE 283 57128;43.48579748308487;10.331576051520539
6562;LIVORNO VIA FIRENZE 14;SERVIZI & GESTIONI ITALIA S.R.L.;VIA FIRENZE 14 57121;43.561304332513025;10.326135233044624
54573;LIVORNO VIALE FRANCESCO PETRARCA 176;SERVIZI & GESTIONI ITALIA S.R.L.;Viale Francesco Petrarca 176  57124;43.5422037;10.3251897
37178;Mazzei Daniele;MAZZEI DANIELE;VIA VIA CINTA ESTERNA S.N. 57100, LIVORNO (LI) 52 57122;43.55519552140894;10.305282119907247
14464;nicola ricciuti;RICCIUTI NICOLA;VIALE NIEVO IPPOLITO 43/C 57122;43.55772393567285;10.326629140252294
41497;P.V. 5027;ULIVARI CESARE SAS DI ROSALBA CARLO & C.;VIA ENRICO CIALDINI  04 57123;43.54881383209623;10.304510565641408
25678;S.L.A.C. srl;S.L.A.C. SRL;VIA FIRENZE 70 57121;43.56616199999995;10.323725294967646
56376;Santoni Matteo;SANTONI MATTEO;Via del Littorale 277  57128;43.48736539999999;10.3306605
37356;Saviozzi Paolo;SAVIOZZI PAOLO;Viale Boccaccio 10 57127;43.53688895849657;10.322479979762306
55198;SHELL LIVORNO VIALE PETRARCA, 113;SHELL LIVORNO VIALE PETRARCA, 113;FRANCESCO PETRARCA 113 57124;43.5435348;10.3264902
4663;Società Combustibili Appalti Termici S.p.A.;SOCIETA' COMBUSTIBILI APPALTI TERMICI S.P.A.;VIA DELLE CATERATTE 73 57122;43.57116565565136;10.316196978092194
52724;STAZIONE DI SERVIZIO ACI- AGIP SNC DI MASSIMILIANO FORTE E C.;STAZIONE DI SERVIZIO S.N.C. DI FORTE MASSIMILIANO E C.;NIEVO IPPOLITO 126 57121;43.55738276424079;10.326993504867277
7585;Stazione di Servizio Barontini Marco;BARONTINI MARCO;VIA MARRADI GIOVANNI 152 57125;43.53933905580143;10.316677088638244
20684;Stazione di sevizio Scutti Claudio;SCUTTI CLAUDIO;VIA VIA MONDOLFI,154 ANTIGNANO S.N. 57100, LIVORNO (LI) 154 57128;43.509595233856054;10.32704047858715
53028;SV carburanti;S.V. CARBURANTI DI GUIDETTI ROBERTO;NAZARIO SAURO 95 95 57127;43.5314499;10.3169224
48028;Tamoil- Carburanti Toscana Srl ;CARBURANTI TOSCANA S.R.L.;via L. Poet (Mc Donald's- Levante) 14 57124;43.532659317881574;10.3281569480896
20598;VIA FIRENZE;CO. E CI. TRANS OIL SRL - I N  L I Q U I D A Z I O N E;VIA FIRENZE 56 57121;43.56553335828056;10.32476450674585
54265;EDRA ENERGIA - PROCCHIO;EDRA ENERGIA S.R.L.;Via delle Ginestre 24 57030;42.785759897765104;10.244998628716244
58471;SMAF 1068 - MARCIANA;SMAF SERVICES S.R.L.;Via delle Ginestre 24 57030;42.785514179603716;10.245681281089793
6842;eni di murzi mauro;MURZI MAURO;viale cerboni n.36, 57033 - -;42.80439293065895;10.199421644210815
35447;1262;T.D.M. S.R.L.;CALAMANDREI SN 57025;42.92884840903516;10.520323812961578
56763;53676 PIOMBINO;ENI FUEL S.P.A.;Viale Unità d'Italia 121  57025;42.943657;10.537386
57486;56144 PIOMBINO;ENI FUEL S.P.A.;Via della Base Geodetica 16  57025;42.96717;10.54886
49393;CIBA DI CECCHINI FABIO E C. SNC;CIBA DI CECCHINI FABIO E C. SNC;PIAZZA NICCOLINI 22 57025;42.924454967435246;10.53151500372687
56947;DE.CA PETROL PIOMBINO;DE.CA. PETROL S.R.L.;CAVALLEGGERI 15 57025;42.936439211691756;10.502242749643322
36746;eni;PIACENTINI PAOLA & C SNC;VIALE VL UNITA' D'ITALIA 121 121 57025, PIOMBINO (LI) 121 57025;42.943653746540605;10.537413932540858
44852;ENI SALIVOLI ;FONTINOVO SERGIO;VIA  LUNGOMARE MARCONI  73 57025;42.936921000123;10.507448000123
58313;ESSO PIOMBINO VIALE UNITA' D'ITALIA;PAD MULTIENERGY S.P.A;UNITA' D'ITALIA SNC 57025;42.937912;10.530663
46221;Italiana Petroli ;CERBONESCHI MARIO;sp. 39 km. 234 Località Preselle  57025;42.950029361797164;10.700430124998093
58577;Noctua S.R.L.S;NOCTUA S.R.L.S.;DELL'UNITA' D'ITALIA SNC 57025;42.93063972084525;10.526118588293878
7942;P.G.CIARDIELLO S.N.C;P.G. CIARDIELLO DI CIARDIELLO PINA E MARIA GABRIELLA -SOCIETA' IN NOME COLLETTIVO;DELLA BASE GEODETICA 16 57025;42.96718213855647;10.548905432224274
27106;PIOMBINO - DELLA PACE;"IP SERVICES S.R.L.";Piombino Via della Pace  13 57025;42.937315709150944;10.524383906745925
6566;PIOMBINO PRINCIPESSA 17 LOC.FABBRICIANE;SERVIZI & GESTIONI ITALIA S.R.L.;VIA PRINCIPESSA LOC.FABBRICIANE 17 57020;42.97874169430303;10.531774163246155
6565;PIOMBINO STAZ.SERV.Q8 LUNGOM.MARCONI;SERVIZI & GESTIONI ITALIA S.R.L.;STAZ.SERV.Q8 LUNGOM.MARCONI SNC 57020;42.93412275498225;10.509274295631371
4458;ristorante il diavolino;A & G. S.A.S. DI GALLI ALESSIO E GIANLUCA;loc. perelli 10 - -;42.96675339740917;10.62467918314519
26777;UNIONE GAS AUTO;LE FABBRICIANE DI SPATARO G.  & C.  SAS;VIA DELLA PRINCIPESSA 13 57025;42.98842106705455;10.533548399816937
7506;Bazar di Mola;BAZAR DI MOLA F.LLI VAGO - ARIANNA PUCCINI E C. S.A.S.;via P.le Ovest 101-103 - Loc. Mola  57036;42.759140407673364;10.377576649188995
56443;BEY0050;GAMBA E.M.W. - SOCIETA' IN NOME COLLETTIVO;Lungomare Paride Adami SNC 57036;42.76457431102737;10.398384630680079
36831;beyfin;GAMBA E.M.W. - SOCIETA' IN NOME COLLETTIVO;Strada Provinciale Ovest 67 57036;42.76012781483875;10.369934365153313
45944;3A BARONTINI;BARONTINI PETROLI DI BARONTINI ANNALISA & C. SAS;strada provinciale per marciana 28/A 57037;42.798830205830626;10.304273289071716
19792;aci-agip;COLLINI FABRIZIO;VIA R.MANGANARO 5 57030;42.813810838303674;10.317442579487874
47907;CONAD SUPERMERCATI PORTOFERRAIO;SUPERMERCATI ISOLA D'ELBA SRL;Via Cementeria 15 57037;42.811481498607726;10.314920341104509
52994;EDRA ENERGIA - CARPANI;EDRA ENERGIA S.R.L.;Via Colonnello Marco Antonio Carpani 42 57037;42.804973657638406;10.306880761901862
40591;ENI PORTOFERRAIO;PISANI ALESSANDRO;VIA CARPANI 90 57037;42.803400522243685;10.306644961237907
58467;SMAF 1064 - PORTOFERRAIO;SMAF SERVICES S.R.L.;Via Colonnello Marco Antonio Carpani 42 57037;42.804870328905515;10.308340883605966
37804;Impianto Beyfin ;MANCUSI MIRCO;VIA MICHELANGELO 23 57038;42.85897395772876;10.422502433531122
42833;Beyfin Bazar La Ginestra;BAZAR LA GINESTRA DI MELANI IVAN & C. SNC;strada provinciale per Porto Azzurro  57039;42.808503128915156;10.400998387731534
49917;5054 – Rosignano Marittimo;ENI FUEL S.P.A.;Via Aurelia Fraz. Rosignan Solvay  57026;43.39609989344248;10.431612153442366
10220;Distributore di Rosignano;TIRRENOMET S.N.C. DI TAVOLIERI ARNALDO & C.;LE MORELLINE  57013;43.38605401182636;10.469348967189944
50862;Eni Le Spianate;CALECA VITO;1 bis Via Aurelia, Km. 296,6, Livorno  57016;43.42320759404088;10.416671780942474
50264;ENI STATION CM;C.M. S.N.C. DI MARCHIO' GIANLUCA E CODEVICO & C.;STRADA STATALE 206 LOC ACQUABONA KM 11 + 250 SNC 57016;43.41609973923278;10.483194401539118
3842;FINE EST;GESTIONI AUTOSTRADALI DI MIGNEMI VITTORIO & C. S.A.S.;Autostrada A12 LIVORNO-CIVITAVECCHIA,  Km. 200.325, dir. Nord - ;43.42540681214629;10.490012168884277
46742;IP;RAGLIANTI LUCA;VIA VIA DEI LAVORATORI 26 57016, ROSIGNANO MARITTIMO (LI) 26 57016;43.40398896498023;10.470736473798752
57018;IP CHIOMA  PV 40740;FOGAGNOLO NICLA;S.P. n.  39 Via Aurelia n. 1203 KM 299+714 1203 57016;43.44384;10.38320
33265;Kerotris - Rosignano;KEROTRIS S.P.A.;LOCALITA' CAFAGGIOLO - S.S.206 SNC 57016;43.47776996826883;10.46746551990509
31087;ROSIGNANO M.MO - ROSIGNANO SOLVAY;"IP SERVICES S.R.L.";VIA SALVATORE ALLENDE  57026;43.396848723181854;10.435729504299161
3607;SAVALANO OVEST;PUNTO GRILL SERVICES S.R.L.;Autostrada A12 LIVORNO-CIVITAVECCHIA,  Km. 195.075, dir. Sud 57016;43.4591041950259;10.492377877235413
45728;SHELL ROSIGNANO MARITTIMO - V. AURELIA;SHELL ROSIGNANO MARITTIMO - V. AURELIA;Via Aurelia 360 57013;43.39760126327708;10.430068762726982
40797;Stazione Servizio Q8;VERGILI MICHELE;VIA AURELIA KM 288-270  57018;43.363238931232395;10.452699959278107
6335;tamoil 1261;BIESSE S.N.C. DI SCALIA ROBERTO & C.;via della repubblica - rosignano solvay 23 57016;43.39527102046786;10.447822373016379
53269;ZAGAGLIA SAS;ZAGAGLIA S.A.S. DI ZAGAGLIA LUCIANO & C.;DELLA CAVA 100 B 57016;43.397832000123;10.447132000123
21740;Distributore Metanocar;METANO CAR S.R.L.;STRADA COMUNALE PER CAMPIGLIA SNC 57027;43.07962077121753;10.556581810711691
49187;ENI SAN VINCENZO;CECCOTTI ANDREA DITTA INDIVIDUALE;1 Via Aurelia, Km. km 256+304, Livorno  57027;43.10656217136873;10.540973335533677
49121;esso;FONTINOVO SERGIO;1 Via Aurelia, Km. 256, livorno 18 57027;43.11104593600656;10.542757111162361
54223;IP 45505;POWER DI DE CRISTOFARO SAVERIO;SS 1 AURELIA SNC 57027;43.0900932;10.552046
55546;SCAM DI MATTEO AIUTI E C DISTRIBUTORE CARBURANTE MARINA DI SAN VINCENZO;SCAM DI MATTEO AIUTI E C DISTRIBUTORE CARBURANTE MARINA DI SAN VINCENZO;FRATELLI MAGNANI SNC 57027;43.098500321097134;10.536710494842518
19378;TAMOIL;CELLI ANDREA;VIA AURELIA SUD 5 57027;43.09062276041784;10.544741302728653
14718;DISTRIBUTORE SASSETTA;CO. E CI. TRANS OIL SRL - I N  L I Q U I D A Z I O N E;VIA di Castagneto 18 57022, CASTAGNETO CARDUCCI (LI)  ;43.13126635534652;10.64503456912962
58156;Aquila Energie;Aquila Energie;Località Acquari ss398 snc 57028;43.071873892130625;10.674129724502563
14936;ALTOPASCIO;OIL SERVICE S.R.L.;VIA ROMANA EST 24 55011;43.82833822036752;10.645076036453247
31174;Altopascio Oils ;SANTACROCESE OILS S.R.L.;ROMA 1 55011;43.809188196676565;10.68233996629715
6569;ALTOPASCIO VIA EUROPA IMP. Q8;SERVIZI & GESTIONI ITALIA S.R.L.;VIA EUROPA IMP. Q8 SNC 55011;43.816039575300415;10.674583155819732
18835;AQUILA MARGINONE;CARRARA MANUEL;VIA MAMMIANESE SUD 29 55010;43.83625878344765;10.690735280513763
30803;CONAD ALTOPASCIO;LADIS S.R.L.;VIA DELLE CERBAIE 49 55011;43.81900318263215;10.68719656242672
55827;IP altopascio;CORVINO MASSIMO;ROMEA 94 55011;43.819152373289924;10.667528565039074
45931;LOC. SPIANATE - ALTOPASCIO;SERVIZI E GESTIONI ZENIT S.R.L. IN SIGLA - ZENIT S.R.L.;LOC. SPIANATE  55011;43.81012300076982;10.712167226659858
42963;stazione di servizio Eni Altopascio;CHECCHI CARBURANTI DI CHECCHI DANIELE & C. S.N.C.;via della galeotta snc 55011;43.809122591007885;10.691749614378182
9921;Stazione di servizio Esso "PETROLSERVICE";PETROL SERVICE DI SICILIANO OMAR & C. S.A.S.;Viale Europa 29/31 55011;43.81632772766908;10.67749212579497
5027;Torregas Srl - Marginone;TORREGAS - S.R.L.;LOCALITA' PONTE ALLA CILIEGIA 14 55011;43.83503872614666;10.708504915237427
5033;Torregas Srl - Riatri;TORREGAS - S.R.L.;VIA COMUNALE DELLA SIBOLLA SNC 55011;43.814290838001725;10.694777369499207
10666;papi sergio;PAPI SERGIO;via roma 65 c 65022;44.004710585676584;10.583933740854263
28959;San Carlo Ponte Maggio;SAN CARLO S.R.L.;12 dell'Abetone e del Brennero, Km. 62, Abetone  55022;44.04323034650533;10.683262646198273
13989;BENASSI MARIANGELA - DISTRIBUTORE 4 PETROLI;BENASSI MARIANGELA;VIA SR445 PONTE ALL'ANIA, - -;44.04289137902435;10.482128804041395
46743;IL CIOCCO ;IL CIOCCO S.P.A.;LOCALITA' IL CIOCCO-FRAZ. CASTELVECCHIO P. SNC 55051;44.0903939060389;10.466131276999477
59078;Maufer;MAUFER S.N.C. DI MAURO ORI E FERNANDO AGOSTINI;Via Della Repubblica 52 55051;44.0458361;10.478899
46844;VIA ROMA, 12 - BARGA;SERVIZI E GESTIONI ZENIT S.R.L. IN SIGLA - ZENIT S.R.L.;VIA ROMA 12 55051;44.075211849801285;10.481336033695243
42214;2559;T.D.M. S.R.L.;PROVINCIALE LUDOVICA SNC 55023;43.95544396785351;10.502301728836073
59232;5160 BORGO A MOZZANO;ENI FUEL S.P.A.;VIA DELLA FONTANA  4/5  ;43.998356;10.558225
10755;b&c snc;B.& C. DI BERNARDINI SERENA E CIANELLI GIANLUCA S.N.C.;Statale 12 dell'Abetone e del Brennero, Km. 42, dir. abetone - 55023;43.99849667160124;10.558175146579742
59151;BORGO A MOZZANO VIA QUASIMODO, 34 LOC DIECIMO;SERVIZI & GESTIONI ITALIA S.R.L.;VIA QUASIMODO, 34 LOC DIECIMO 34 ;43.9611397;10.5080089
9785;Nuova carburanti;NUOVA CARBURANTI DI PIOLI SANDRO;VIA I MAGGIO SNC 55023;43.97639628308016;10.542218685150146
21538;stazione servizio q8 derni d&f;DERNI DAVID & C. S.A.S.;VIA SALVATORE QUASIMODO 34, 55023  55023;43.96120095909183;10.507985891401631
11635;CAMAIORE LU-PIAZZA ROMBONI;SERVIZI & GESTIONI ITALIA S.R.L.;PIAZZA ROMBONI S/N 55041;43.93621924304203;10.307895927140635
37763;CAMAIORE VIALE ITALICO;SERVIZI & GESTIONI ITALIA S.R.L.;VIALE ITALICO  55041;43.916971317535484;10.255365053372998
47263;Distributore IP di Della Latta Samuele;SAMUELE DELLA LATTA;VIA ITALICA 138 55041;43.90563868983226;10.23632874232787
51370;GRIMALDI 4 petroli;DI PALO BURRONE MARIA;via provinciale per camaiore 98 55064;43.89887203263619;10.39527733632181
